~VERSION INFORMATION
 VERS.                          2.0   : CWLS LOG ASCII STANDARD - VERSION 2.0
 WRAP.                          NO    : ONE LINE PER DEPTH STEP
#
~Well Information Section
#MNEM     .UNIT     DATA                DESCRIPTION
#-----    -----     --------            --------------
 STRT     .F        100.0000            : START DEPTH
 STOP     .F        7130.0000           : END DEPTH
 STEP     .F        0.0000              : INCREMENT DEPTH
 NULL     .         -999.2500           : NULL VALUE
 COMP     .                              :
 WELL     .         WELL-01             : WELL NAME
 EKB      .F        92.0000             : KELLY BUSHING ELEVATION
 EGL      .F        0.0000              : GROUND LEVEL ELEVATION
 EPD      .F        0.0000              : PERMANENT DATUM ELEVATION
 FLD      .                              :
 LOC      . X = 2002.0000 Y = 2378.0000: WELL LOCATION
 PROV     .                              :
 SRVC     .                              :
 PROV     .                              :
 DATE     .                              :
 API      .                              :
#
~Curve Information Section
#MNEM     .UNIT               Curve #DESCRIPTION
#-----    -----               ----   --------------
 DEPTH    .F                  : 1     Name = Domain Curve - Type = DEPTH
 CHKS     .ms (Two Way time)  : 2     Name = Check Shot_1 - Type = Check Shot
 RHOB     .g/cc               : 3     Name = Density_1 - Type = Density
 GR       .gapi               : 4     Name = Gamma Ray_1 - Type = Gamma Ray
 NPHI     .ft3/ft3            : 5     Name = Neutron Porosity_1 - Type = Neutron Porosity
 PHIT	  .ft3/ft3            : 6     Name = Porosity_total_1 - Type = Porosity
 DT       .us/ft              : 7     Name = P-wave_1 - Type = P-wave
~A (ASCII LOG DATA)
# ...
 6099.0000       -999.2500          2.5268         23.3050          0.1196          0.1135         62.2990
 6099.5000       -999.2500          2.5248         23.1478          0.1177          0.1131         62.1557
 6100.0000       1520.7400          2.5194         22.8238          0.1131          0.1123         61.7806
 6100.5000       -999.2500          2.5172         22.6764          0.1167          0.1148         62.1069
 6101.0000       -999.2500          2.5199         22.6720          0.1190          0.1151         62.9672
 6101.5000       -999.2500          2.5258         22.6890          0.1177          0.1128         63.1613
 6102.0000       -999.2500          2.5370         21.8907          0.1145          0.1081         62.8418
 6102.5000       -999.2500          2.5461         21.3212          0.1125          0.1045         62.4524
 6103.0000       -999.2500          2.5197         21.4105          0.1137          0.1125         62.3853
 6103.5000       -999.2500          2.5370         21.3227          0.1160          0.1089         62.5415
 6104.0000       -999.2500          2.5396         21.1567          0.1125          0.1062         62.4378
 6104.5000       -999.2500          2.5441         21.5070          0.1074          0.1024         61.9784
 6105.0000       -999.2500          2.5512         22.5405          0.1006          0.0968         61.8083
 6105.5000       -999.2500          2.5633         22.8519          0.1012          0.0938         61.3045
 6106.0000       -999.2500          2.5715         22.2921          0.1026          0.0924         60.4256
 6106.5000       -999.2500          2.5451         21.9396          0.1036          0.1001         60.1190
 6107.0000       -999.2500          2.5453         21.9167          0.1043          0.1004         60.2076
 6107.5000       -999.2500          2.5542         22.0343          0.1046          0.0981         60.5726
 6108.0000       -999.2500          2.5796         22.2197          0.1047          0.0916         60.8306
 6108.5000       -999.2500          2.5928         22.1866          0.1065          0.0896         60.6358
 6109.0000       -999.2500          2.5796         21.9301          0.1071          0.0930         60.2185
 6109.5000       -999.2500          2.5613         21.9126          0.1071          0.0976         59.4403
 6110.0000       -999.2500          2.5481         23.0119          0.1059          0.1005         58.9968
 6110.5000       -999.2500          2.5410         24.8978          0.1053          0.1021         59.2544
 6111.0000       -999.2500          2.5329         26.2477          0.1053          0.1045         59.8221
 6111.5000       -999.2500          2.5400         26.1492          0.1053          0.1024         60.7385
 6112.0000       -999.2500          2.5451         24.4541          0.1101          0.1035         61.3602
 6112.5000       -999.2500          2.5480         23.9442          0.1174          0.1067         61.3116
 6113.0000       -999.2500          2.5319         23.8749          0.1250          0.1151         60.6238
 6113.5000       -999.2500          2.5035         23.6615          0.1332          0.1272         60.2757
 6114.0000       -999.2500          2.4893         23.0283          0.1460          0.1378         60.1190
 6114.5000       -999.2500          2.4675         22.3183          0.1592          0.1508         60.1190
 6115.0000       -999.2500          2.4507         22.4133          0.1721          0.1622         60.1190
 6115.5000       -999.2500          2.4416         22.2281          0.1861          0.1721         60.1994
 6116.0000       -999.2500          2.4345         21.8380          0.2021          0.1828         60.8529
 6116.5000       -999.2500          2.4446         21.6756          0.2009          0.1795         62.2131
 6117.0000       -999.2500          2.4669         22.1255          0.1908          0.1682         65.1529
 6117.5000       -999.2500          2.4761         22.2683          0.1838          0.1620         66.1867
 6118.0000       -999.2500          2.4609         21.7190          0.1730          0.1600         68.0651
 6118.5000       -999.2500          2.4468         21.5364          0.1610          0.1575         68.4482
 6119.0000       -999.2500          2.4511         22.2590          0.1577          0.1546         68.4252
 6119.5000       -999.2500          2.4119         21.7652          0.1608          0.1677         66.3596
 6120.0000       -999.2500          2.3097         21.7615          0.1734          0.2060         64.6350
 6120.5000       -999.2500          2.2024         22.7337          0.1983          0.2524         63.6844
 6121.0000       -999.2500          2.0902         23.7603          0.2507          0.3117         63.3658
 6121.5000       -999.2500          2.0089         25.4753          0.2999          0.3592         63.6586
 6122.0000       -999.2500          1.9829         25.5857          0.3321          0.3815         63.5175
 6122.5000       -999.2500          2.0585         25.2583          0.2842          0.3361         62.6789
 6123.0000       -999.2500          2.1206         25.0506          0.2075          0.2845         61.7984
 6123.5000       -999.2500          2.2163         24.9598          0.1510          0.2304         60.5684
 6124.0000       -999.2500          2.3516         24.6513          0.1604          0.1866         60.5835
 6124.5000       -999.2500          2.4179         24.3941          0.1626          0.1668         61.5987
 6125.0000       -999.2500          2.4591         24.3452          0.1456          0.1462         64.3986
 6125.5000       -999.2500          2.4869         24.7335          0.1306          0.1305         66.8172
 6126.0000       -999.2500          2.4909         24.7082          0.1264          0.1273         66.6685
 6126.5000       -999.2500          2.4580         23.7115          0.1331          0.1404         65.4934
 6127.0000       -999.2500          2.4320         23.4255          0.1461          0.1545         63.9635
 6127.5000       -999.2500          2.4216         23.9524          0.1655          0.1671         61.8017
 6128.0000       -999.2500          2.3893         24.3787          0.1903          0.1889         60.4159
 6128.5000       -999.2500          2.3337         24.4658          0.2220          0.2210         59.4386
 6129.0000       -999.2500          2.2618         25.1487          0.2686          0.2654         58.1170
 6129.5000       -999.2500          2.2149         26.7091          0.3094          0.2996         57.0011
 6130.0000       -999.2500          2.2045         27.9333          0.3390          0.3181         56.1292
 6130.5000       -999.2500          2.1942         28.8011          0.3652          0.3349         56.4763
 6131.0000       -999.2500          2.1789         29.1851          0.3633          0.3380         57.8341
 6131.5000       -999.2500          2.1663         28.6936          0.3531          0.3360         59.2359
 6132.0000       -999.2500          2.1653         28.8535          0.3576          0.3386         61.1240
 6132.5000       -999.2500          2.1687         29.4215          0.3652          0.3417         63.5031
 6133.0000       -999.2500          2.1711         29.8713          0.3610          0.3388         65.9829
 6133.5000       -999.2500          2.1716         30.0306          0.3490          0.3324         68.4609
 6134.0000       -999.2500          2.1772         30.1173          0.3415          0.3269         70.9397
 6134.5000       -999.2500          2.2279         31.3300          0.3408          0.3128         73.4182
 6135.0000       -999.2500          2.2952         32.2565          0.3367          0.2934         75.8963
 6135.5000       -999.2500          2.3395         32.1532          0.3312          0.2799         78.4637
 6136.0000       -999.2500          2.3906         30.4378          0.3278          0.2668         81.3981
