~VERSION INFORMATION
 VERS.                          2.0   : CWLS LOG ASCII STANDARD - VERSION 2.0
 WRAP.                          NO    : ONE LINE PER DEPTH STEP
#
~Well Information Section
#MNEM     .UNIT     DATA                DESCRIPTION
#-----    -----     --------            --------------
 STRT     .F        100.0000            : START DEPTH
 STOP     .F        7130.0000           : END DEPTH
 STEP     .F        0.0000              : INCREMENT DEPTH
 NULL     .         -999.2500           : NULL VALUE
 COMP     .                              :
 WELL     .         WELL-01             : WELL NAME
 EKB      .F        92.0000             : KELLY BUSHING ELEVATION
 EGL      .F        0.0000              : GROUND LEVEL ELEVATION
 EPD      .F        0.0000              : PERMANENT DATUM ELEVATION
 FLD      .                              :
 LOC      . X = 2002.0000 Y = 2378.0000: WELL LOCATION
 PROV     .                              :
 SRVC     .                              :
 PROV     .                              :
 DATE     .                              :
 API      .                              :
#
~Curve Information Section
#MNEM     .UNIT               Curve #DESCRIPTION
#-----    -----               ----   --------------
 DEPTH    .F                  : 1     Name = Domain Curve - Type = DEPTH
 CHKS     .ms (Two Way time)  : 2     Name = Check Shot_1 - Type = Check Shot
 RHOB     .g/cc               : 3     Name = Density_1 - Type = Density
 GR       .gapi               : 4     Name = Gamma Ray_1 - Type = Gamma Ray
 NPHI     .ft3/ft3            : 5     Name = Neutron Porosity_1 - Type = Neutron Porosity
 PHIT	  .ft3/ft3            : 6     Name = Porosity_total_1 - Type = Porosity
 DT       .us/ft              : 7     Name = P-wave_1 - Type = P-wave
~A (ASCII LOG DATA)
# ...
 6736.5000       -999.2500          2.5183         46.4307          0.1244       -999.2500         62.7974
 6737.0000       -999.2500          2.5048         44.2940          0.1274       -999.2500         63.2071
 6737.5000       -999.2500          2.5355         42.6490          0.1304       -999.2500         61.6366
 6738.0000       -999.2500          2.5410         42.4321          0.1327       -999.2500         60.6263
 6738.5000       -999.2500          2.5634         42.4909          0.1421       -999.2500         62.0380
 6739.0000       -999.2500          2.5622         44.4201          0.1585       -999.2500         67.7748
 6739.5000       -999.2500          2.5124         49.7139          0.1852       -999.2500         78.4448
 6740.0000       -999.2500          2.4450         57.0228          0.2136       -999.2500         88.5669
 6740.5000       -999.2500          2.3745         63.2015          0.2843       -999.2500         93.8872
 6741.0000       -999.2500          2.3570         66.3683          0.3742       -999.2500         93.0792
 6741.5000       -999.2500          2.4101         67.8134          0.3695       -999.2500         88.1238
 6742.0000       -999.2500          2.4373         69.6718          0.3453       -999.2500         85.5651
 6742.5000       -999.2500          2.4395         72.5799          0.3363       -999.2500         86.2749
 6743.0000       -999.2500          2.3994         78.1223          0.3734       -999.2500         93.5664
 6743.5000       -999.2500          2.3438         84.9930          0.4334       -999.2500        103.6880
 6744.0000       -999.2500          2.3775         90.3385          0.4559       -999.2500        111.7558
 6744.5000       -999.2500          2.3756         91.6550          0.4526       -999.2500        115.3868
 6745.0000       -999.2500          2.3404         90.6096          0.4571       -999.2500        115.5008
 6745.5000       -999.2500          2.3556         88.2085          0.4656       -999.2500        114.3886
 6746.0000       -999.2500          2.3859         85.0535          0.4672       -999.2500        112.6626
 6746.5000       -999.2500          2.4012         81.9370          0.4446       -999.2500        111.0428
 6747.0000       -999.2500          2.4210         78.4329          0.4194       -999.2500        109.9893
 6747.5000       -999.2500          2.4289         74.0739          0.4179       -999.2500        108.0952
 6748.0000       -999.2500          2.4288         70.4489          0.4163       -999.2500        104.8190
 6748.5000       -999.2500          2.4436         67.4909          0.3996       -999.2500         99.9793
 6749.0000       -999.2500          2.4649         64.2217          0.3617       -999.2500         92.4689
 6749.5000       -999.2500          2.4994         60.5432          0.3228       -999.2500         84.8760
 6750.0000       -999.2500          2.5193         55.2577          0.2871       -999.2500         79.1931
 6750.5000       -999.2500          2.5173         45.4409          0.2620       -999.2500         74.3525
 6751.0000       -999.2500          2.5157         37.2467          0.2500       -999.2500         73.2930
 6751.5000       -999.2500          2.4950         35.7511          0.2443       -999.2500         74.9473
 6752.0000       -999.2500          2.4773         36.9320          0.2430       -999.2500         76.9408
 6752.5000       -999.2500          2.4867         39.5971          0.2424       -999.2500         79.4237
 6753.0000       -999.2500          2.5084         40.3165          0.2389       -999.2500         80.0589
 6753.5000       -999.2500          2.5047         39.6248          0.2309       -999.2500         78.2594
 6754.0000       -999.2500          2.5079         39.3725          0.2149       -999.2500         74.7438
 6754.5000       -999.2500          2.5324         40.2155          0.1942       -999.2500         70.8981
 6755.0000       -999.2500          2.5364         42.3047          0.1742       -999.2500         68.7408
 6755.5000       -999.2500          2.5314         45.7411          0.1667       -999.2500         68.5450
 6756.0000       -999.2500          2.5267         50.8628          0.1786       -999.2500         71.9123
 6756.5000       -999.2500          2.5076         57.6266          0.2086       -999.2500         80.6349
 6757.0000       -999.2500          2.4721         65.9225          0.2588       -999.2500         91.5515
 6757.5000       -999.2500          2.4070         75.3269          0.3189       -999.2500        101.9392
 6758.0000       -999.2500          2.3512         85.1581          0.3835       -999.2500        109.8478
 6758.5000       -999.2500          2.3331         93.6864          0.4336       -999.2500        112.7161
 6759.0000       -999.2500          2.3365         99.9543          0.4550       -999.2500        112.8102
 6759.5000       -999.2500          2.3454        101.0788          0.4593       -999.2500        112.8807
 6760.0000       -999.2500          2.3078         98.1017          0.4621       -999.2500        113.6140
 6760.5000       -999.2500          2.2568         96.8050          0.4665       -999.2500        114.5621
 6761.0000       -999.2500          2.2534         97.2921          0.4623       -999.2500        114.7849
 6761.5000       -999.2500          2.2393         96.3312          0.4545       -999.2500        115.1743
 6762.0000       -999.2500          2.2276         93.8171          0.4592       -999.2500        115.1407
 6762.5000       -999.2500          2.2354         92.0609          0.4700       -999.2500        114.0853
 6763.0000       -999.2500          2.2475         91.4782          0.4769       -999.2500        113.2022
 6763.5000       -999.2500          2.2752         92.1549          0.4702       -999.2500        112.5844
 6764.0000       -999.2500          2.2992         93.9506          0.4592       -999.2500        112.5330
 6764.5000       -999.2500          2.3340         95.9277          0.4587       -999.2500        113.2773
 6765.0000       -999.2500          2.3491         97.0135          0.4622       -999.2500        113.4560
 6765.5000       -999.2500          2.3363         97.6192          0.4657       -999.2500        113.3205
 6766.0000       -999.2500          2.3318         97.1030          0.4713       -999.2500        113.5457
 6766.5000       -999.2500          2.3024         96.8042          0.4771       -999.2500        113.6743
 6767.0000       -999.2500          2.2859         96.4866          0.4778       -999.2500        113.8424
 6767.5000       -999.2500          2.2921         95.8946          0.4696       -999.2500        113.7404
 6768.0000       -999.2500          2.2950         95.9763          0.4665       -999.2500        113.2352
 6768.5000       -999.2500          2.3048         96.1383          0.4773       -999.2500        112.9308
 6769.0000       -999.2500          2.3081         96.1447          0.4893       -999.2500        113.1063
 6769.5000       -999.2500          2.3161         95.9052          0.4832       -999.2500        113.3938
 6770.0000       -999.2500          2.3097         97.6313          0.4727       -999.2500        113.8095
 6770.5000       -999.2500          2.3141         98.7309          0.4676       -999.2500        114.1471
 6771.0000       -999.2500          2.3117         98.3327          0.4727       -999.2500        114.4267
 6771.5000       -999.2500          2.3118         98.1064          0.4766       -999.2500        115.1512
 6772.0000       -999.2500          2.3180         98.4845          0.4752       -999.2500        116.2922
 6772.5000       -999.2500          2.3138         98.1123          0.4787       -999.2500        117.9133
 6773.0000       -999.2500          2.2787         95.9874          0.4896       -999.2500        119.5589
 6773.5000       -999.2500          2.2713         95.1264          0.4822       -999.2500        116.9462
