~VERSION INFORMATION
 VERS.                          2.0   : CWLS LOG ASCII STANDARD - VERSION 2.0
 WRAP.                          NO    : ONE LINE PER DEPTH STEP
#
~Well Information Section
#MNEM     .UNIT     DATA                DESCRIPTION
#-----    -----     --------            --------------
 STRT     .F        100.0000            : START DEPTH
 STOP     .F        7130.0000           : END DEPTH
 STEP     .F        0.0000              : INCREMENT DEPTH
 NULL     .         -999.2500           : NULL VALUE
 COMP     .                              :
 WELL     .         WELL-01             : WELL NAME
 EKB      .F        92.0000             : KELLY BUSHING ELEVATION
 EGL      .F        0.0000              : GROUND LEVEL ELEVATION
 EPD      .F        0.0000              : PERMANENT DATUM ELEVATION
 FLD      .                              :
 LOC      . X = 2002.0000 Y = 2378.0000: WELL LOCATION
 PROV     .                              :
 SRVC     .                              :
 PROV     .                              :
 DATE     .                              :
 API      .                              :
#
~Curve Information Section
#MNEM     .UNIT               Curve #DESCRIPTION
#-----    -----               ----   --------------
 DEPTH    .F                  : 1     Name = Domain Curve - Type = DEPTH
 CHKS     .ms (Two Way time)  : 2     Name = Check Shot_1 - Type = Check Shot
 RHOB     .g/cc               : 3     Name = Density_1 - Type = Density
 GR       .gapi               : 4     Name = Gamma Ray_1 - Type = Gamma Ray
 NPHI     .ft3/ft3            : 5     Name = Neutron Porosity_1 - Type = Neutron Porosity
 PHIT	  .ft3/ft3            : 6     Name = Porosity_total_1 - Type = Porosity
 DT       .us/ft              : 7     Name = P-wave_1 - Type = P-wave
~A (ASCII LOG DATA)
# ...
 1036.0000       -999.2500          1.7851         33.8970          0.5097       -999.2500       -999.2500
 1036.5000       -999.2500          1.7790         34.1500          0.5183       -999.2500       -999.2500
 1037.0000       -999.2500          1.7719         35.2840          0.5243       -999.2500       -999.2500
 1037.5000       -999.2500          1.7688         35.0380          0.5142       -999.2500       -999.2500
 1038.0000       -999.2500          1.7632         33.9250          0.5326       -999.2500       -999.2500
 1038.5000       -999.2500          1.7678         33.4180          0.5427       -999.2500       -999.2500
 1039.0000       -999.2500          1.7627         33.4640          0.5575       -999.2500       -999.2500
 1039.5000       -999.2500          1.7574         33.2280          0.5732       -999.2500       -999.2500
 1040.0000       -999.2500          1.7455         32.2780          0.5777       -999.2500       -999.2500
 1040.5000       -999.2500          1.7495         30.4440          0.5685       -999.2500       -999.2500
 1041.0000       -999.2500          1.7099         29.9070          0.5569       -999.2500       -999.2500
 1041.5000       -999.2500          1.7079         29.6390          0.5398       -999.2500       -999.2500
 1042.0000       -999.2500          1.7773         30.2290          0.5218       -999.2500       -999.2500
 1042.5000       -999.2500          1.8267         31.5930          0.5046       -999.2500       -999.2500
 1043.0000       -999.2500          1.8359         33.4100          0.4959       -999.2500       -999.2500
 1043.5000       -999.2500          1.8546         33.0010          0.4883       -999.2500       -999.2500
 1044.0000       -999.2500          1.8714         32.4800          0.4830       -999.2500       -999.2500
 1044.5000       -999.2500          1.8785         32.0250          0.4764       -999.2500       -999.2500
 1045.0000       -999.2500          1.8877         33.1660          0.4688       -999.2500       -999.2500
 1045.5000       -999.2500          1.8846         34.6060          0.4600       -999.2500       -999.2500
 1046.0000       -999.2500          1.8903         35.6650          0.4287       -999.2500       -999.2500
 1046.5000       -999.2500          1.8958         36.6440          0.4114       -999.2500       -999.2500
 1047.0000       -999.2500          1.9060         36.5830          0.4161       -999.2500       -999.2500
 1047.5000       -999.2500          1.9090         36.5930          0.4446       -999.2500       -999.2500
 1048.0000       -999.2500          1.8717         37.8090          0.4446       -999.2500       -999.2500
 1048.5000       -999.2500          1.8228         40.1470          0.4322       -999.2500       -999.2500
 1049.0000       -999.2500          1.7815         41.3840          0.4375       -999.2500       -999.2500
 1049.5000       -999.2500          1.6794         40.7450          0.4423       -999.2500       -999.2500
 1050.0000       -999.2500          1.6794         40.8660          0.4498       -999.2500       -999.2500
 1050.5000       -999.2500          1.6794         41.7380          0.4575       -999.2500       -999.2500
 1051.0000       -999.2500          1.6794         41.3620          0.4442       -999.2500       -999.2500
 1051.5000       -999.2500          1.6794         42.5280          0.4285       -999.2500       -999.2500
 1052.0000       -999.2500          1.6794         43.0740          0.4185       -999.2500       -999.2500
 1052.5000       -999.2500          1.6794         41.2790          0.4258       -999.2500       -999.2500
 1053.0000       -999.2500          1.6794         36.8020          0.4524       -999.2500       -999.2500
 1053.5000       -999.2500          1.6794         30.8610          0.4814       -999.2500       -999.2500
 1054.0000       -999.2500          1.6794         24.7900          0.5415       -999.2500       -999.2500
 1054.5000       -999.2500          1.6794         21.8500          0.5563       -999.2500       -999.2500
 1055.0000       -999.2500          1.6794         20.9780          0.5332       -999.2500       -999.2500
 1055.5000       -999.2500          1.6794         21.0340          0.5228       -999.2500       -999.2500
 1056.0000       -999.2500          1.6794         20.0530          0.5207       -999.2500       -999.2500
 1056.5000       -999.2500          1.6794         19.0010          0.5361       -999.2500       -999.2500
 1057.0000       -999.2500          1.6794         19.2520          0.5551       -999.2500       -999.2500
 1057.5000       -999.2500          1.6794         20.4170          0.5451       -999.2500       -999.2500
 1058.0000       -999.2500          1.6794         21.0740          0.5388       -999.2500       -999.2500
 1058.5000       -999.2500          1.6794         21.0170          0.5443       -999.2500       -999.2500
 1059.0000       -999.2500          1.6794         20.8240          0.5486       -999.2500       -999.2500
 1059.5000       -999.2500          1.6794         19.7570          0.5736       -999.2500       -999.2500
 1060.0000       -999.2500          1.6794         19.8190          0.5849       -999.2500       -999.2500
 1060.5000       -999.2500          1.6794         20.7770          0.5920       -999.2500       -999.2500
 1061.0000       -999.2500          1.6794         23.5940          0.5670       -999.2500       -999.2500
 1061.5000       -999.2500          1.6794         28.1540          0.5494       -999.2500       -999.2500
 1062.0000       -999.2500          1.6794         32.2050          0.5249       -999.2500       -999.2500
 1062.5000       -999.2500          1.6794         34.4900          0.5409       -999.2500       -999.2500
 1063.0000       -999.2500          1.6794         32.0640          0.5480       -999.2500       -999.2500
 1063.5000       -999.2500          1.6794         28.1910          0.5516       -999.2500       -999.2500
 1064.0000       -999.2500          1.6794         24.3760          0.5383       -999.2500       -999.2500
 1064.5000       -999.2500          1.6794         21.5920          0.5355       -999.2500       -999.2500
 1065.0000       -999.2500          1.6794         20.9200          0.5159       -999.2500       -999.2500
 1065.5000       -999.2500          1.6794         20.4060          0.5253       -999.2500       -999.2500
 1066.0000       -999.2500          1.6794         20.0200          0.5350       -999.2500       -999.2500
 1066.5000       -999.2500          1.6794         18.2570          0.5259       -999.2500       -999.2500
 1067.0000       -999.2500          1.6794         16.7020          0.5112       -999.2500       -999.2500
 1067.5000       -999.2500          1.6794         16.4710          0.5183       -999.2500       -999.2500
 1068.0000       -999.2500          1.6794         16.9590          0.5094       -999.2500       -999.2500
 1068.5000       -999.2500          1.6794         17.9790          0.5160       -999.2500       -999.2500
 1069.0000       -999.2500          1.6794         18.0480          0.5399       -999.2500       -999.2500
 1069.5000       -999.2500          1.6794         18.2060          0.5528       -999.2500       -999.2500
 1070.0000       -999.2500          1.6794         18.4260          0.5510       -999.2500       -999.2500
 1070.5000       -999.2500          1.6794         19.5760          0.5615       -999.2500       -999.2500
 1071.0000       -999.2500          1.6794         20.1750          0.5753       -999.2500       -999.2500
 1071.5000       -999.2500          1.6794         20.3570          0.6027       -999.2500       -999.2500
 1072.0000       -999.2500          1.6794         20.6050          0.6027       -999.2500       -999.2500
 1072.5000       -999.2500          1.6794         20.0510          0.6027       -999.2500       -999.2500
 1073.0000       -999.2500          1.6794         19.1410          0.6027       -999.2500       -999.2500
