~VERSION INFORMATION
 VERS.                          2.0   : CWLS LOG ASCII STANDARD - VERSION 2.0
 WRAP.                          NO    : ONE LINE PER DEPTH STEP
#
~Well Information Section
#MNEM     .UNIT     DATA                DESCRIPTION
#-----    -----     --------            --------------
 STRT     .F        100.0000            : START DEPTH
 STOP     .F        7130.0000           : END DEPTH
 STEP     .F        0.0000              : INCREMENT DEPTH
 NULL     .         -999.2500           : NULL VALUE
 COMP     .                              :
 WELL     .         WELL-01             : WELL NAME
 EKB      .F        92.0000             : KELLY BUSHING ELEVATION
 EGL      .F        0.0000              : GROUND LEVEL ELEVATION
 EPD      .F        0.0000              : PERMANENT DATUM ELEVATION
 FLD      .                              :
 LOC      . X = 2002.0000 Y = 2378.0000: WELL LOCATION
 PROV     .                              :
 SRVC     .                              :
 PROV     .                              :
 DATE     .                              :
 API      .                              :
#
~Curve Information Section
#MNEM     .UNIT               Curve #DESCRIPTION
#-----    -----               ----   --------------
 DEPTH    .F                  : 1     Name = Domain Curve - Type = DEPTH
 CHKS     .ms (Two Way time)  : 2     Name = Check Shot_1 - Type = Check Shot
 RHOB     .g/cc               : 3     Name = Density_1 - Type = Density
 GR       .gapi               : 4     Name = Gamma Ray_1 - Type = Gamma Ray
 NPHI     .ft3/ft3            : 5     Name = Neutron Porosity_1 - Type = Neutron Porosity
 PHIT	  .ft3/ft3            : 6     Name = Porosity_total_1 - Type = Porosity
 DT       .us/ft              : 7     Name = P-wave_1 - Type = P-wave
~A (ASCII LOG DATA)
# ...
 7074.0000       -999.2500          2.3628         99.1468          0.4339       -999.2500        104.0224
 7074.5000       -999.2500          2.3820        101.3490          0.4181       -999.2500        104.9479
 7075.0000       -999.2500          2.3378        102.6274          0.4377       -999.2500        107.1404
 7075.5000       -999.2500          2.2969        104.0206          0.4325       -999.2500        109.6313
 7076.0000       -999.2500          2.2742        104.5954          0.4195       -999.2500        109.0885
 7076.5000       -999.2500          2.2371        102.9367          0.4233       -999.2500        109.2770
 7077.0000       -999.2500          2.1965        100.8300          0.4366       -999.2500        109.2975
 7077.5000       -999.2500          2.1666        101.8193          0.4401       -999.2500        110.4660
 7078.0000       -999.2500          2.1848        101.1350          0.4406       -999.2500        111.9460
 7078.5000       -999.2500          2.2153         98.7950          0.4337       -999.2500        112.6460
 7079.0000       -999.2500          2.2620         96.7730          0.4084       -999.2500        112.8440
 7079.5000       -999.2500          2.3005         91.2370          0.3663       -999.2500        105.5610
 7080.0000       -999.2500          2.3502         80.3570          0.2930       -999.2500         93.1070
 7080.5000       -999.2500          2.4337         70.1580          0.2347       -999.2500         80.7330
 7081.0000       -999.2500          2.5213         59.7530          0.2294       -999.2500         71.4170
 7081.5000       -999.2500          2.4842         48.9790          0.2288       -999.2500         73.3990
 7082.0000       -999.2500          2.4761         46.6300          0.2294       -999.2500         72.0120
 7082.5000       -999.2500          2.5207         46.8140          0.2246       -999.2500         68.8620
 7083.0000       -999.2500          2.5289         47.9500          0.2169       -999.2500         66.6600
 7083.5000       -999.2500          2.4913         48.5180          0.2003       -999.2500         64.2810
 7084.0000       -999.2500          2.4649         48.0330          0.1944       -999.2500         63.4890
 7084.5000       -999.2500          2.4659         49.1000          0.1913       -999.2500         62.8940
 7085.0000       -999.2500          2.4456         50.8300          0.1977       -999.2500         61.9030
 7085.5000       -999.2500          2.4913         51.1770          0.2033       -999.2500         63.6870
 7086.0000       -999.2500          2.5015         52.1980          0.2153       -999.2500         64.4800
 7086.5000       -999.2500          2.4578         54.7620          0.2475       -999.2500         67.0560
 7087.0000       -999.2500          2.4335         58.5120          0.2796       -999.2500         67.4530
 7087.5000       -999.2500          2.4111         62.6330          0.3118       -999.2500         72.8050
 7088.0000       -999.2500          2.3776         71.3230          0.3440       -999.2500         82.5170
 7088.5000       -999.2500          2.3685         82.6970          0.3819       -999.2500         92.2300
 7089.0000       -999.2500          2.3269         93.2440          0.4268       -999.2500        102.5870
 7089.5000       -999.2500          2.2863        106.0090          0.4650       -999.2500        108.2850
 7090.0000       -999.2500          2.3218        109.6480          0.4703       -999.2500        110.4070
 7090.5000       -999.2500          2.3462        106.5070          0.4599       -999.2500        110.6640
 7091.0000       -999.2500          2.3459        106.7700          0.4485       -999.2500        109.2770
 7091.5000       -999.2500          2.3350        110.4120          0.4500       -999.2500        108.4840
 7092.0000       -999.2500          2.3431        110.0480          0.4531       -999.2500        108.0870
 7092.5000       -999.2500          2.3563        111.7600          0.4585       -999.2500        107.8890
 7093.0000       -999.2500          2.3675        111.9410          0.4502       -999.2500        108.4840
 7093.5000       -999.2500          2.3726        111.8830          0.4608       -999.2500        108.8800
 7094.0000       -999.2500          2.3807        111.8400          0.4531       -999.2500        108.8800
 7094.5000       -999.2500          2.3807        111.3460          0.4484       -999.2500        108.8800
 7095.0000       -999.2500          2.3584        108.8470          0.4626       -999.2500        109.2770
 7095.5000       -999.2500          2.3421        110.0450          0.4638       -999.2500        109.2770
 7096.0000       -999.2500          2.3776        110.5510          0.4371       -999.2500        109.0780
 7096.5000       -999.2500          2.3827        110.5430          0.4341       -999.2500        109.0780
 7097.0000       -999.2500          2.3858        110.9640          0.4282       -999.2500        108.2850
 7097.5000       -999.2500          2.3421        110.5810          0.4323       -999.2500        107.6910
 7098.0000       -999.2500          2.3015        110.1840          0.4461       -999.2500        107.2940
 7098.5000       -999.2500          2.2876        109.9940          0.4599       -999.2500        107.6910
 7099.0000       -999.2500          2.2833        110.2070          0.4712       -999.2500        108.2850
 7099.5000       -999.2500          2.2499        110.5930          0.4816       -999.2500        108.8800
 7100.0000       1679.9600          2.2163        110.3990          0.4798       -999.2500        108.2850
 7100.5000       -999.2500          2.2082        110.1550          0.4854       -999.2500        107.0960
 7101.0000       -999.2500          2.3482        109.1710          0.4917       -999.2500        108.7350
 7101.5000       -999.2500          2.3482        108.8120          0.4964       -999.2500        109.7720
 7102.0000       -999.2500          2.3221        109.4230          0.4935       -999.2500       -999.2500
 7102.5000       -999.2500          2.2997        109.9610          0.4891       -999.2500       -999.2500
 7103.0000       -999.2500          2.2956        109.7630          0.4777       -999.2500       -999.2500
 7103.5000       -999.2500          2.2982        108.5180          0.4635       -999.2500       -999.2500
 7104.0000       -999.2500          2.2967        106.0590          0.4493       -999.2500       -999.2500
 7104.5000       -999.2500          2.2733        106.8570          0.4427       -999.2500       -999.2500
 7105.0000       -999.2500          2.2631        107.4510          0.4611       -999.2500       -999.2500
 7105.5000       -999.2500          2.3007        107.5420          0.4611       -999.2500       -999.2500
 7106.0000       -999.2500          2.3017        107.1900          0.4552       -999.2500       -999.2500
 7106.5000       -999.2500          2.2875        108.7550          0.4611       -999.2500       -999.2500
 7107.0000       -999.2500          2.2783        108.1000          0.4772       -999.2500       -999.2500
 7107.5000       -999.2500          2.2458        107.2440          0.4879       -999.2500       -999.2500
 7108.0000       -999.2500          2.2448        106.6920          0.4791       -999.2500       -999.2500
 7108.5000       -999.2500          2.3129        106.3950          0.4664       -999.2500       -999.2500
 7109.0000       -999.2500          2.3943        107.1770          0.4434       -999.2500       -999.2500
 7109.5000       -999.2500          2.4664        108.7490          0.4090       -999.2500       -999.2500
 7110.0000       -999.2500          2.4949        109.7070          0.3090       -999.2500       -999.2500
 7110.5000       -999.2500          2.4207        110.8600          0.2373       -999.2500       -999.2500
 7111.0000       -999.2500          2.4075        111.9560          0.2054       -999.2500       -999.2500
