~VERSION INFORMATION
 VERS.                          2.0   : CWLS LOG ASCII STANDARD - VERSION 2.0
 WRAP.                          NO    : ONE LINE PER DEPTH STEP
#
~Well Information Section
#MNEM     .UNIT     DATA                DESCRIPTION
#-----    -----     --------            --------------
 STRT     .F        100.0000            : START DEPTH
 STOP     .F        7130.0000           : END DEPTH
 STEP     .F        0.0000              : INCREMENT DEPTH
 NULL     .         -999.2500           : NULL VALUE
 COMP     .                              :
 WELL     .         WELL-01             : WELL NAME
 EKB      .F        92.0000             : KELLY BUSHING ELEVATION
 EGL      .F        0.0000              : GROUND LEVEL ELEVATION
 EPD      .F        0.0000              : PERMANENT DATUM ELEVATION
 FLD      .                              :
 LOC      . X = 2002.0000 Y = 2378.0000: WELL LOCATION
 PROV     .                              :
 SRVC     .                              :
 PROV     .                              :
 DATE     .                              :
 API      .                              :
#
~Curve Information Section
#MNEM     .UNIT               Curve #DESCRIPTION
#-----    -----               ----   --------------
 DEPTH    .F                  : 1     Name = Domain Curve - Type = DEPTH
 CHKS     .ms (Two Way time)  : 2     Name = Check Shot_1 - Type = Check Shot
 RHOB     .g/cc               : 3     Name = Density_1 - Type = Density
 GR       .gapi               : 4     Name = Gamma Ray_1 - Type = Gamma Ray
 NPHI     .ft3/ft3            : 5     Name = Neutron Porosity_1 - Type = Neutron Porosity
 PHIT	  .ft3/ft3            : 6     Name = Porosity_total_1 - Type = Porosity
 DT       .us/ft              : 7     Name = P-wave_1 - Type = P-wave
~A (ASCII LOG DATA)
# ...
 6436.5000       -999.2500          2.6761         34.2360          0.0680          0.0501         56.0977
 6437.0000       -999.2500          2.6560         34.3677          0.0727          0.0561         56.8111
 6437.5000       -999.2500          2.6509         33.7063          0.0802          0.0617         57.2844
 6438.0000       -999.2500          2.6388         31.0630          0.0867          0.0680         57.9686
 6438.5000       -999.2500          2.6027         28.7966          0.0935          0.0797         59.2894
 6439.0000       -999.2500          2.5612         27.2639          0.1005          0.0940         61.6495
 6439.5000       -999.2500          2.5296         28.1423          0.1160          0.1109         63.7080
 6440.0000       -999.2500          2.5194         30.0421          0.1270          0.1195         63.6237
 6440.5000       -999.2500          2.5257         31.6458          0.1250          0.1167         62.2100
 6441.0000       -999.2500          2.5455         34.1186          0.1222          0.1099         60.9207
 6441.5000       -999.2500          2.5612         34.9131          0.1176          0.1034         60.2532
 6442.0000       -999.2500          2.5784         34.7877          0.1172          0.0991         61.1024
 6442.5000       -999.2500          2.5737         34.0953          0.1248          0.1047         63.3441
 6443.0000       -999.2500          2.5611         33.0590          0.1361          0.1143         65.2901
 6443.5000       -999.2500          2.5555         33.4926          0.1469          0.1219         65.8689
 6444.0000       -999.2500          2.5735         34.8439          0.1785          0.1382         66.4470
 6444.5000       -999.2500          2.5455         34.6549          0.1874          0.1489         68.1835
 6445.0000       -999.2500          2.5392         34.1818          0.1948          0.1548         69.8269
 6445.5000       -999.2500          2.5195         33.2175          0.2060          0.1656         70.9110
 6446.0000       -999.2500          2.5138         32.6228          0.2190          0.1748         70.6011
 6446.5000       -999.2500          2.5107         33.8829          0.2273          0.1807         70.7715
 6447.0000       -999.2500          2.4977         33.8402          0.2253          0.1819         72.7942
 6447.5000       -999.2500          2.4914         33.2598          0.2241          0.1824         75.0359
 6448.0000       -999.2500          2.5145         31.3246          0.2246          0.1782         77.2889
 6448.5000       -999.2500          2.5417         30.8230          0.2288          0.1761         78.1535
 6449.0000       -999.2500          2.5330         31.5842          0.2360          0.1822         77.4800
 6449.5000       -999.2500          2.5147         33.1548          0.2330          0.1834         77.2075
 6450.0000       -999.2500          2.5055         33.1260          0.2264          0.1811         77.3640
 6450.5000       -999.2500          2.4910         32.7259          0.2360          0.1899         77.3643
 6451.0000       -999.2500          2.4643         32.3606          0.2439          0.2002         77.4033
 6451.5000       -999.2500          2.4423         34.1883          0.2462          0.2063         77.8546
 6452.0000       -999.2500          2.4611         35.3766          0.2421          0.1997         79.5255
 6452.5000       -999.2500          2.4732         36.1913          0.2363          0.1937         80.3733
 6453.0000       -999.2500          2.4868         36.7127          0.2329          0.1888         79.3734
 6453.5000       -999.2500          2.4943         36.2937          0.2323          0.1869         78.4246
 6454.0000       -999.2500          2.5054         35.1116          0.2243          0.1797         74.8104
 6454.5000       -999.2500          2.5172         33.8037          0.2031          0.1643         72.0556
 6455.0000       -999.2500          2.5471         33.0662          0.1541          0.1281         69.0782
 6455.5000       -999.2500          2.5737         32.4668          0.1381          0.1127         64.9818
 6456.0000       -999.2500          2.5918         31.3050          0.1311          0.1048         63.8982
 6456.5000       -999.2500          2.6192         30.5124          0.1292          0.0988         63.7552
 6457.0000       -999.2500          2.6401         30.3939          0.1303          0.0966         64.8727
 6457.5000       -999.2500          2.6364         30.2109          0.1339          0.0994         64.6514
 6458.0000       -999.2500          2.6236         28.9639          0.1372          0.1034         65.0229
 6458.5000       -999.2500          2.6088         27.8837          0.1376          0.1059         65.6026
 6459.0000       -999.2500          2.6093         28.1240          0.1338          0.1034         65.3443
 6459.5000       -999.2500          2.6103         27.9920          0.1317          0.1019         64.9432
 6460.0000       -999.2500          2.6330         29.0629          0.1221          0.0920         64.1939
 6460.5000       -999.2500          2.6775         30.0627          0.1085          0.0779         61.9070
 6461.0000       -999.2500          2.7042         31.8095          0.0948          0.0670         60.2772
 6461.5000       -999.2500          2.7056         32.0342          0.0977          0.0691         60.8317
 6462.0000       -999.2500          2.6920         32.0952          0.1066          0.0757         61.8483
 6462.5000       -999.2500          2.6760         31.9877          0.1222          0.0876         62.2955
 6463.0000       -999.2500          2.6544         32.9179          0.1263          0.0922         62.7831
 6463.5000       -999.2500          2.6425         33.1592          0.1245          0.0923         63.5339
 6464.0000       -999.2500          2.6472         31.2853          0.1147          0.0851         63.7805
 6464.5000       -999.2500          2.6514         29.4877          0.1041          0.0775         62.4300
 6465.0000       -999.2500          2.6559         28.0832          0.0943          0.0704         60.2254
 6465.5000       -999.2500          2.6429         27.9007          0.0921          0.0708         58.4625
 6466.0000       -999.2500          2.6387         27.7544          0.0924          0.0717         56.9617
 6466.5000       -999.2500          2.6272         27.7498          0.0949          0.0753         56.1535
 6467.0000       -999.2500          2.6186         27.3279          0.1016          0.0812         55.9328
 6467.5000       -999.2500          2.6072         25.8563          0.1155          0.0920         56.8318
 6468.0000       -999.2500          2.5793         23.8475          0.1325          0.1082         58.8887
 6468.5000       -999.2500          2.5449         22.8670          0.1490          0.1256         61.3143
 6469.0000       -999.2500          2.5199         22.3262          0.1636          0.1399         63.0433
 6469.5000       -999.2500          2.5041         22.0765          0.1754          0.1504         63.9365
 6470.0000       -999.2500          2.4969         22.6960          0.1830          0.1566         64.7022
 6470.5000       -999.2500          2.4851         24.5524          0.1878          0.1621         65.7868
 6471.0000       -999.2500          2.4656         25.6530          0.1927          0.1696         67.0300
 6471.5000       -999.2500          2.4445         25.6304          0.1975          0.1776         68.4126
 6472.0000       -999.2500          2.4350         25.7433          0.2023          0.1827         69.7264
 6472.5000       -999.2500          2.4372         26.0281          0.2071          0.1849         70.7570
 6473.0000       -999.2500          2.4483         26.0257          0.2120          0.1849         71.1535
 6473.5000       -999.2500          2.4693         25.5575          0.2118          0.1798         70.5233
