~VERSION INFORMATION
 VERS.                          2.0   : CWLS LOG ASCII STANDARD - VERSION 2.0
 WRAP.                          NO    : ONE LINE PER DEPTH STEP
#
~Well Information Section
#MNEM     .UNIT     DATA                DESCRIPTION
#-----    -----     --------            --------------
 STRT     .F        100.0000            : START DEPTH
 STOP     .F        7130.0000           : END DEPTH
 STEP     .F        0.0000              : INCREMENT DEPTH
 NULL     .         -999.2500           : NULL VALUE
 COMP     .                              :
 WELL     .         WELL-01             : WELL NAME
 EKB      .F        92.0000             : KELLY BUSHING ELEVATION
 EGL      .F        0.0000              : GROUND LEVEL ELEVATION
 EPD      .F        0.0000              : PERMANENT DATUM ELEVATION
 FLD      .                              :
 LOC      . X = 2002.0000 Y = 2378.0000: WELL LOCATION
 PROV     .                              :
 SRVC     .                              :
 PROV     .                              :
 DATE     .                              :
 API      .                              :
#
~Curve Information Section
#MNEM     .UNIT               Curve #DESCRIPTION
#-----    -----               ----   --------------
 DEPTH    .F                  : 1     Name = Domain Curve - Type = DEPTH
 CHKS     .ms (Two Way time)  : 2     Name = Check Shot_1 - Type = Check Shot
 RHOB     .g/cc               : 3     Name = Density_1 - Type = Density
 GR       .gapi               : 4     Name = Gamma Ray_1 - Type = Gamma Ray
 NPHI     .ft3/ft3            : 5     Name = Neutron Porosity_1 - Type = Neutron Porosity
 PHIT	  .ft3/ft3            : 6     Name = Porosity_total_1 - Type = Porosity
 DT       .us/ft              : 7     Name = P-wave_1 - Type = P-wave
~A (ASCII LOG DATA)
# ...
 2011.0000       -999.2500          2.0228         30.3270          0.3318       -999.2500       -999.2500
 2011.5000       -999.2500          2.0513         34.7660          0.3246       -999.2500       -999.2500
 2012.0000       -999.2500          2.0888         38.0290          0.3246       -999.2500       -999.2500
 2012.5000       -999.2500          2.1054         41.7420          0.3288       -999.2500       -999.2500
 2013.0000       -999.2500          2.1340         42.7480          0.3151       -999.2500       -999.2500
 2013.5000       -999.2500          2.1782         41.9200          0.2866       -999.2500       -999.2500
 2014.0000       -999.2500          2.1695         40.3570          0.2966       -999.2500       -999.2500
 2014.5000       -999.2500          2.1495         38.7280          0.3342       -999.2500       -999.2500
 2015.0000       -999.2500          2.1274         36.9450          0.3312       -999.2500       -999.2500
 2015.5000       -999.2500          2.1183         36.5620          0.3324       -999.2500       -999.2500
 2016.0000       -999.2500          2.1538         37.3270          0.3229       -999.2500       -999.2500
 2016.5000       -999.2500          2.2228         37.6050          0.3163       -999.2500       -999.2500
 2017.0000       -999.2500          2.2483         36.9280          0.3205       -999.2500       -999.2500
 2017.5000       -999.2500          2.2534         36.5700          0.3308       -999.2500       -999.2500
 2018.0000       -999.2500          2.2480         38.1190          0.3395       -999.2500       -999.2500
 2018.5000       -999.2500          2.2238         40.8550          0.3401       -999.2500       -999.2500
 2019.0000       -999.2500          2.1872         44.6860          0.3682       -999.2500       -999.2500
 2019.5000       -999.2500          2.1258         48.7500          0.4038       -999.2500       -999.2500
 2020.0000       -999.2500          2.0250         51.1830          0.4394       -999.2500       -999.2500
 2020.5000       -999.2500          1.9486         52.0410          0.4441       -999.2500       -999.2500
 2021.0000       -999.2500          2.0339         48.9390          0.4071       -999.2500       -999.2500
 2021.5000       -999.2500          2.0891         41.9060          0.3730       -999.2500       -999.2500
 2022.0000       -999.2500          2.1937         36.8550          0.3306       -999.2500       -999.2500
 2022.5000       -999.2500          2.2260         36.1410          0.3306       -999.2500       -999.2500
 2023.0000       -999.2500          2.1965         34.0410          0.3544       -999.2500       -999.2500
 2023.5000       -999.2500          2.0594         31.8650          0.3740       -999.2500       -999.2500
 2024.0000       -999.2500          1.9951         29.7530          0.3802       -999.2500       -999.2500
 2024.5000       -999.2500          1.9722         28.6900          0.3805       -999.2500       -999.2500
 2025.0000       -999.2500          1.9334         28.7270          0.3707       -999.2500       -999.2500
 2025.5000       -999.2500          1.9825         29.5020          0.3633       -999.2500       -999.2500
 2026.0000       -999.2500          2.0644         31.0100          0.3686       -999.2500       -999.2500
 2026.5000       -999.2500          2.1450         31.0670          0.3446       -999.2500       -999.2500
 2027.0000       -999.2500          2.2066         30.6690          0.3318       -999.2500       -999.2500
 2027.5000       -999.2500          2.1905         30.6270          0.3494       -999.2500       -999.2500
 2028.0000       -999.2500          2.1772         30.3310          0.3656       -999.2500       -999.2500
 2028.5000       -999.2500          2.1650         29.7370          0.3686       -999.2500       -999.2500
 2029.0000       -999.2500          2.1520         28.9210          0.3767       -999.2500       -999.2500
 2029.5000       -999.2500          2.1347         27.8780          0.3859       -999.2500       -999.2500
 2030.0000       -999.2500          2.1208         27.2030          0.3906       -999.2500       -999.2500
 2030.5000       -999.2500          2.1328         27.4660          0.3965       -999.2500       -999.2500
 2031.0000       -999.2500          2.1637         27.6580          0.4049       -999.2500       -999.2500
 2031.5000       -999.2500          2.2126         27.7620          0.4031       -999.2500       -999.2500
 2032.0000       -999.2500          2.2808         26.3610          0.4060       -999.2500       -999.2500
 2032.5000       -999.2500          2.2471         25.0430          0.4203       -999.2500       -999.2500
 2033.0000       -999.2500          2.1325         21.6760          0.4233       -999.2500       -999.2500
 2033.5000       -999.2500          2.1345         21.0940          0.4302       -999.2500       -999.2500
 2034.0000       -999.2500          2.0884         22.3690          0.4363       -999.2500       -999.2500
 2034.5000       -999.2500          2.0685         23.5610          0.4405       -999.2500       -999.2500
 2035.0000       -999.2500          2.1040         25.5590          0.4411       -999.2500       -999.2500
 2035.5000       -999.2500          2.1132         27.7140          0.4179       -999.2500       -999.2500
 2036.0000       -999.2500          2.1538         29.4780          0.4119       -999.2500       -999.2500
 2036.5000       -999.2500          2.1303         29.2440          0.4144       -999.2500       -999.2500
 2037.0000       -999.2500          2.0786         28.0910          0.4108       -999.2500       -999.2500
 2037.5000       -999.2500          2.0583         25.2200          0.4221       -999.2500       -999.2500
 2038.0000       -999.2500          2.0634         24.1760          0.4233       -999.2500       -999.2500
 2038.5000       -999.2500          2.0411         24.4040          0.4364       -999.2500       -999.2500
 2039.0000       -999.2500          1.9679         24.7460          0.4628       -999.2500       -999.2500
 2039.5000       -999.2500          1.9283         24.9020          0.4690       -999.2500       -999.2500
 2040.0000       -999.2500          1.9649         24.9500          0.4397       -999.2500       -999.2500
 2040.5000       -999.2500          1.9882         25.1810          0.4209       -999.2500       -999.2500
 2041.0000       -999.2500          2.0045         26.0030          0.4114       -999.2500       -999.2500
 2041.5000       -999.2500          2.1021         27.0150          0.4102       -999.2500       -999.2500
 2042.0000       -999.2500          2.1477         26.5730          0.4453       -999.2500       -999.2500
 2042.5000       -999.2500          2.1569         25.7590          0.4572       -999.2500       -999.2500
 2043.0000       -999.2500          2.0533         26.1140          0.4647       -999.2500       -999.2500
 2043.5000       -999.2500          1.9750         26.7070          0.4720       -999.2500       -999.2500
 2044.0000       -999.2500          1.9497         25.2970          0.4874       -999.2500       -999.2500
 2044.5000       -999.2500          1.9466         24.2010          0.4916       -999.2500       -999.2500
 2045.0000       -999.2500          1.9507         24.4170          0.4886       -999.2500       -999.2500
 2045.5000       -999.2500          1.9759         24.5790          0.4856       -999.2500       -999.2500
 2046.0000       -999.2500          2.0025         24.1510          0.4928       -999.2500       -999.2500
 2046.5000       -999.2500          1.9490         23.1540          0.4963       -999.2500       -999.2500
 2047.0000       -999.2500          1.8846         21.7380          0.4975       -999.2500       -999.2500
 2047.5000       -999.2500          1.7407         19.7800          0.4996       -999.2500       -999.2500
 2048.0000       -999.2500          1.6784         19.2640          0.5029       -999.2500       -999.2500
