~VERSION INFORMATION
 VERS.                          2.0   : CWLS LOG ASCII STANDARD - VERSION 2.0
 WRAP.                          NO    : ONE LINE PER DEPTH STEP
#
~Well Information Section
#MNEM     .UNIT     DATA                DESCRIPTION
#-----    -----     --------            --------------
 STRT     .F        100.0000            : START DEPTH
 STOP     .F        7130.0000           : END DEPTH
 STEP     .F        0.0000              : INCREMENT DEPTH
 NULL     .         -999.2500           : NULL VALUE
 COMP     .                              :
 WELL     .         WELL-01             : WELL NAME
 EKB      .F        92.0000             : KELLY BUSHING ELEVATION
 EGL      .F        0.0000              : GROUND LEVEL ELEVATION
 EPD      .F        0.0000              : PERMANENT DATUM ELEVATION
 FLD      .                              :
 LOC      . X = 2002.0000 Y = 2378.0000: WELL LOCATION
 PROV     .                              :
 SRVC     .                              :
 PROV     .                              :
 DATE     .                              :
 API      .                              :
#
~Curve Information Section
#MNEM     .UNIT               Curve #DESCRIPTION
#-----    -----               ----   --------------
 DEPTH    .F                  : 1     Name = Domain Curve - Type = DEPTH
 CHKS     .ms (Two Way time)  : 2     Name = Check Shot_1 - Type = Check Shot
 RHOB     .g/cc               : 3     Name = Density_1 - Type = Density
 GR       .gapi               : 4     Name = Gamma Ray_1 - Type = Gamma Ray
 NPHI     .ft3/ft3            : 5     Name = Neutron Porosity_1 - Type = Neutron Porosity
 PHIT	  .ft3/ft3            : 6     Name = Porosity_total_1 - Type = Porosity
 DT       .us/ft              : 7     Name = P-wave_1 - Type = P-wave
~A (ASCII LOG DATA)
# ...
 3849.0000       -999.2500          2.1846         88.4877          0.4666       -999.2500        178.7943
 3849.5000       -999.2500          2.1996         89.0806          0.4496       -999.2500        177.2484
 3850.0000       -999.2500          2.2169         88.5334          0.4427       -999.2500        175.1789
 3850.5000       -999.2500          2.2276         86.7646          0.4524       -999.2500        171.2894
 3851.0000       -999.2500          2.2371         83.8900          0.4705       -999.2500        166.4393
 3851.5000       -999.2500          2.2429         80.4257          0.4631       -999.2500        166.6406
 3852.0000       -999.2500          2.2478         77.3929          0.4489       -999.2500        168.4016
 3852.5000       -999.2500          2.2623         77.4265          0.4358       -999.2500        163.4395
 3853.0000       -999.2500          2.2696         78.8615          0.4186       -999.2500        156.9544
 3853.5000       -999.2500          2.2602         79.7237          0.3987       -999.2500        155.5363
 3854.0000       -999.2500          2.2666         80.7352          0.3863       -999.2500        156.6011
 3854.5000       -999.2500          2.2646         82.4131          0.4016       -999.2500        154.3149
 3855.0000       -999.2500          2.2495         82.5053          0.4125       -999.2500        144.4142
 3855.5000       -999.2500          2.2521         83.2173          0.3874       -999.2500        132.0219
 3856.0000       -999.2500          2.2705         82.4979          0.3665       -999.2500        124.4740
 3856.5000       -999.2500          2.2889         80.1934          0.3566       -999.2500        124.0148
 3857.0000       -999.2500          2.3002         78.2044          0.3588       -999.2500        129.8721
 3857.5000       -999.2500          2.3025         80.9546          0.3702       -999.2500        137.3146
 3858.0000       -999.2500          2.2971         84.0296          0.3884       -999.2500        141.0958
 3858.5000       -999.2500          2.2706         87.2197          0.4132       -999.2500        141.9345
 3859.0000       -999.2500          2.2473         88.4848          0.4322       -999.2500        145.5665
 3859.5000       -999.2500          2.2474         88.4861          0.4327       -999.2500        146.9776
 3860.0000       -999.2500          2.2520         86.8845          0.4360       -999.2500        145.7562
 3860.5000       -999.2500          2.2359         83.9749          0.4280       -999.2500        143.1947
 3861.0000       -999.2500          2.2106         80.9544          0.4255       -999.2500        141.3149
 3861.5000       -999.2500          2.2035         78.7741          0.4222       -999.2500        141.5539
 3862.0000       -999.2500          2.2237         78.3265          0.4023       -999.2500        137.0358
 3862.5000       -999.2500          2.2634         78.9818          0.3765       -999.2500        130.9030
 3863.0000       -999.2500          2.2862         80.7027          0.3728       -999.2500        125.9873
 3863.5000       -999.2500          2.2961         81.0830          0.3621       -999.2500        130.6803
 3864.0000       -999.2500          2.3162         80.2566          0.3544       -999.2500        135.0700
 3864.5000       -999.2500          2.3215         82.0586          0.3708       -999.2500        137.4682
 3865.0000       -999.2500          2.2854         85.3534          0.3894       -999.2500        139.2506
 3865.5000       -999.2500          2.2722         86.6767          0.4017       -999.2500        140.3084
 3866.0000       -999.2500          2.2623         87.5372          0.4074       -999.2500        148.0785
 3866.5000       -999.2500          2.2494         87.2491          0.4044       -999.2500        150.6106
 3867.0000       -999.2500          2.2442         85.6360          0.4161       -999.2500        151.4296
 3867.5000       -999.2500          2.2302         85.1306          0.4305       -999.2500        153.3517
 3868.0000       -999.2500          2.2221         85.9050          0.4401       -999.2500        158.4499
 3868.5000       -999.2500          2.2278         86.2559          0.4406       -999.2500        160.4088
 3869.0000       -999.2500          2.2358         86.4726          0.4326       -999.2500        161.5941
 3869.5000       -999.2500          2.2208         87.5361          0.4339       -999.2500        153.7404
 3870.0000       -999.2500          2.2175         87.7886          0.4336       -999.2500        146.5839
 3870.5000       -999.2500          2.2084         85.7140          0.4308       -999.2500        146.9518
 3871.0000       -999.2500          2.1996         83.9047          0.4214       -999.2500        150.2018
 3871.5000       -999.2500          2.1943         83.6093          0.4266       -999.2500        156.3805
 3872.0000       -999.2500          2.1874         83.7561          0.4213       -999.2500        158.3982
 3872.5000       -999.2500          2.1704         83.5839          0.4182       -999.2500        162.3691
 3873.0000       -999.2500          2.2018         82.0598          0.3951       -999.2500        161.8836
 3873.5000       -999.2500          2.2159         82.7915          0.3857       -999.2500        163.1769
 3874.0000       -999.2500          2.1847         84.9694          0.4094       -999.2500        164.3318
 3874.5000       -999.2500          2.1729         84.2853          0.4177       -999.2500        163.2403
 3875.0000       -999.2500          2.1907         79.9146          0.4058       -999.2500        168.0418
 3875.5000       -999.2500          2.2050         79.6713          0.4086       -999.2500        167.0920
 3876.0000       -999.2500          2.1922         77.8530          0.4062       -999.2500        166.3817
 3876.5000       -999.2500          2.1865         77.9840          0.4128       -999.2500        173.6148
 3877.0000       -999.2500          2.1942         79.4600          0.4133       -999.2500        179.1796
 3877.5000       -999.2500          2.2019         81.4700          0.4245       -999.2500        180.3781
 3878.0000       -999.2500          2.2088         82.6900          0.4482       -999.2500        178.9603
 3878.5000       -999.2500          2.2171         81.0490          0.4567       -999.2500        177.2091
 3879.0000       -999.2500          2.2253         80.1040          0.4401       -999.2500        177.0660
 3879.5000       -999.2500          2.2335         77.9250          0.4187       -999.2500        176.1755
 3880.0000       -999.2500          2.2411         77.4990          0.4015       -999.2500        173.4352
 3880.5000       -999.2500          2.2305         77.6340          0.3936       -999.2500        168.0277
 3881.0000       -999.2500          2.2244         79.0090          0.3902       -999.2500        161.5165
 3881.5000       -999.2500          2.2193         78.0730          0.3878       -999.2500        156.0348
 3882.0000       -999.2500          2.2132         77.6930          0.3878       -999.2500        155.9334
 3882.5000       -999.2500          2.2122         77.7230          0.3878       -999.2500        156.7171
 3883.0000       -999.2500          2.2153         74.2020          0.3878       -999.2500        153.1434
 3883.5000       -999.2500          2.2234         72.2290          0.3908       -999.2500        144.0770
 3884.0000       -999.2500          2.2366         69.3690          0.4056       -999.2500        132.7909
 3884.5000       -999.2500          2.2061         65.2050          0.3985       -999.2500        125.0671
 3885.0000       -999.2500          2.1897         60.3340          0.3629       -999.2500        102.0463
 3885.5000       -999.2500          2.1778         59.3500          0.3487       -999.2500        106.5191
 3886.0000       -999.2500          2.1655         59.6050          0.3463       -999.2500        115.5423
