~VERSION INFORMATION
 VERS.                          2.0   : CWLS LOG ASCII STANDARD - VERSION 2.0
 WRAP.                          NO    : ONE LINE PER DEPTH STEP
#
~Well Information Section
#MNEM     .UNIT     DATA                DESCRIPTION
#-----    -----     --------            --------------
 STRT     .F        100.0000            : START DEPTH
 STOP     .F        7130.0000           : END DEPTH
 STEP     .F        0.0000              : INCREMENT DEPTH
 NULL     .         -999.2500           : NULL VALUE
 COMP     .                              :
 WELL     .         WELL-01             : WELL NAME
 EKB      .F        92.0000             : KELLY BUSHING ELEVATION
 EGL      .F        0.0000              : GROUND LEVEL ELEVATION
 EPD      .F        0.0000              : PERMANENT DATUM ELEVATION
 FLD      .                              :
 LOC      . X = 2002.0000 Y = 2378.0000: WELL LOCATION
 PROV     .                              :
 SRVC     .                              :
 PROV     .                              :
 DATE     .                              :
 API      .                              :
#
~Curve Information Section
#MNEM     .UNIT               Curve #DESCRIPTION
#-----    -----               ----   --------------
 DEPTH    .F                  : 1     Name = Domain Curve - Type = DEPTH
 CHKS     .ms (Two Way time)  : 2     Name = Check Shot_1 - Type = Check Shot
 RHOB     .g/cc               : 3     Name = Density_1 - Type = Density
 GR       .gapi               : 4     Name = Gamma Ray_1 - Type = Gamma Ray
 NPHI     .ft3/ft3            : 5     Name = Neutron Porosity_1 - Type = Neutron Porosity
 PHIT	  .ft3/ft3            : 6     Name = Porosity_total_1 - Type = Porosity
 DT       .us/ft              : 7     Name = P-wave_1 - Type = P-wave
~A (ASCII LOG DATA)
# ...
 4486.5000       -999.2500          2.3357         70.2827          0.3343       -999.2500        113.1053
 4487.0000       -999.2500          2.3962         70.2040          0.3290       -999.2500        105.4817
 4487.5000       -999.2500          2.3814         70.4177          0.3395       -999.2500        101.6644
 4488.0000       -999.2500          2.3066         74.1757          0.3645       -999.2500        102.4247
 4488.5000       -999.2500          2.2520         79.2664          0.3870       -999.2500        105.4512
 4489.0000       -999.2500          2.2358         82.7421          0.4016       -999.2500        116.4829
 4489.5000       -999.2500          2.2162         83.7231          0.3909       -999.2500        126.7399
 4490.0000       -999.2500          2.1925         82.6319          0.3845       -999.2500        132.6469
 4490.5000       -999.2500          2.1977         82.9152          0.3791       -999.2500        136.3397
 4491.0000       -999.2500          2.1749         83.6002          0.3954       -999.2500        135.2672
 4491.5000       -999.2500          2.1330         84.2109          0.4049       -999.2500        134.3544
 4492.0000       -999.2500          2.0767         84.6796          0.4127       -999.2500        140.5082
 4492.5000       -999.2500          2.0199         85.1482          0.4367       -999.2500        140.9125
 4493.0000       -999.2500          1.9378         84.0974          0.4579       -999.2500        142.7508
 4493.5000       -999.2500          1.8897         83.0593          0.4471       -999.2500        151.1019
 4494.0000       -999.2500          1.9638         82.7249          0.4430       -999.2500        153.2489
 4494.5000       -999.2500          2.0447         82.3664          0.4442       -999.2500        147.3428
 4495.0000       -999.2500          2.0814         80.6566          0.4522       -999.2500        146.2972
 4495.5000       -999.2500          2.1037         78.3434          0.4633       -999.2500        152.9159
 4496.0000       -999.2500          2.1515         78.0762          0.4653       -999.2500        148.9849
 4496.5000       -999.2500          2.1936         77.2900          0.4488       -999.2500        140.8969
 4497.0000       -999.2500          2.2106         78.1388          0.4310       -999.2500        138.4906
 4497.5000       -999.2500          2.2260         79.9365          0.4111       -999.2500        125.7966
 4498.0000       -999.2500          2.2264         79.9673          0.3928       -999.2500        114.5860
 4498.5000       -999.2500          2.2130         79.7788          0.3866       -999.2500        113.8145
 4499.0000       -999.2500          2.1901         80.0592          0.3891       -999.2500        117.4164
 4499.5000       -999.2500          2.1707         81.0933          0.3888       -999.2500        120.2479
 4500.0000       1185.0300          2.1598         81.4850          0.3812       -999.2500        124.4236
 4500.5000       -999.2500          2.1054         80.7090          0.3813       -999.2500        134.3561
 4501.0000       -999.2500          2.0383         79.9867          0.3973       -999.2500        144.0664
 4501.5000       -999.2500          1.9964         80.1235          0.4188       -999.2500        146.0078
 4502.0000       -999.2500          1.9575         80.7767          0.4403       -999.2500        148.1669
 4502.5000       -999.2500          1.9226         79.8548          0.4628       -999.2500        151.7133
 4503.0000       -999.2500          1.8930         79.3899          0.4807       -999.2500        153.4075
 4503.5000       -999.2500          1.8618         78.6962          0.4869       -999.2500        157.1575
 4504.0000       -999.2500          1.8279         79.4495          0.4790       -999.2500        161.8439
 4504.5000       -999.2500          1.7880         81.6978          0.4693       -999.2500        160.7334
 4505.0000       -999.2500          1.7380         82.4778          0.4731       -999.2500        154.8244
 4505.5000       -999.2500          1.7256         82.3274          0.4620       -999.2500        157.0693
 4506.0000       -999.2500          1.7663         82.4717          0.4474       -999.2500        149.1876
 4506.5000       -999.2500          1.8000         82.6698          0.4369       -999.2500        147.9171
 4507.0000       -999.2500          1.8360         83.0637          0.4383       -999.2500        153.0137
 4507.5000       -999.2500          1.8359         82.3011          0.4464       -999.2500        148.0788
 4508.0000       -999.2500          1.8118         81.6971          0.4550       -999.2500        148.8211
 4508.5000       -999.2500          1.7813         80.9008          0.4633       -999.2500        149.8397
 4509.0000       -999.2500          1.7212         80.6669          0.4680       -999.2500        147.7237
 4509.5000       -999.2500          1.7561         81.4040          0.4711       -999.2500        142.0260
 4510.0000       -999.2500          1.8448         80.6566          0.5067       -999.2500        142.3690
 4510.5000       -999.2500          1.9691         78.9739          0.5179       -999.2500        143.4801
 4511.0000       -999.2500          2.0548         78.2638          0.5064       -999.2500        141.6875
 4511.5000       -999.2500          2.0760         77.6478          0.4815       -999.2500        142.1888
 4512.0000       -999.2500          2.0168         77.1419          0.4597       -999.2500        142.0377
 4512.5000       -999.2500          1.9891         77.8176          0.4440       -999.2500        139.4353
 4513.0000       -999.2500          2.0082         79.1785          0.4474       -999.2500        135.7035
 4513.5000       -999.2500          2.0308         79.9499          0.4712       -999.2500        130.3862
 4514.0000       -999.2500          2.0592         80.2895          0.4710       -999.2500        126.1003
 4514.5000       -999.2500          2.1191         80.7910          0.4613       -999.2500        125.6182
 4515.0000       -999.2500          2.1967         82.9803          0.4387       -999.2500        122.2930
 4515.5000       -999.2500          2.2371         86.0527          0.4124       -999.2500        116.4395
 4516.0000       -999.2500          2.2509         88.1315          0.4041       -999.2500        117.5171
 4516.5000       -999.2500          2.2435         87.2741          0.3983       -999.2500        118.9428
 4517.0000       -999.2500          2.2304         84.6643          0.3877       -999.2500        118.6662
 4517.5000       -999.2500          2.2114         82.1971          0.3765       -999.2500        116.3922
 4518.0000       -999.2500          2.1909         80.4983          0.3653       -999.2500        115.7920
 4518.5000       -999.2500          2.1892         79.5670          0.3565       -999.2500        118.9020
 4519.0000       -999.2500          2.2043         77.6150          0.3483       -999.2500        124.8446
 4519.5000       -999.2500          2.2086         76.4363          0.3379       -999.2500        130.8585
 4520.0000       -999.2500          2.2023         76.2180          0.3454       -999.2500        134.9421
 4520.5000       -999.2500          2.1993         78.4638          0.3593       -999.2500        135.4423
 4521.0000       -999.2500          2.2073         80.3028          0.3708       -999.2500        131.8452
 4521.5000       -999.2500          2.2126         80.9987          0.3813       -999.2500        125.6058
 4522.0000       -999.2500          2.2187         79.8829          0.3893       -999.2500        118.9853
 4522.5000       -999.2500          2.2295         79.3602          0.3932       -999.2500        114.7262
 4523.0000       -999.2500          2.2012         78.7442          0.3851       -999.2500        115.1137
 4523.5000       -999.2500          2.1987         77.6563          0.3690       -999.2500        118.4886
