~VERSION INFORMATION
 VERS.                          2.0   : CWLS LOG ASCII STANDARD - VERSION 2.0
 WRAP.                          NO    : ONE LINE PER DEPTH STEP
#
~Well Information Section
#MNEM     .UNIT     DATA                DESCRIPTION
#-----    -----     --------            --------------
 STRT     .F        100.0000            : START DEPTH
 STOP     .F        7130.0000           : END DEPTH
 STEP     .F        0.0000              : INCREMENT DEPTH
 NULL     .         -999.2500           : NULL VALUE
 COMP     .                              :
 WELL     .         WELL-01             : WELL NAME
 EKB      .F        92.0000             : KELLY BUSHING ELEVATION
 EGL      .F        0.0000              : GROUND LEVEL ELEVATION
 EPD      .F        0.0000              : PERMANENT DATUM ELEVATION
 FLD      .                              :
 LOC      . X = 2002.0000 Y = 2378.0000: WELL LOCATION
 PROV     .                              :
 SRVC     .                              :
 PROV     .                              :
 DATE     .                              :
 API      .                              :
#
~Curve Information Section
#MNEM     .UNIT               Curve #DESCRIPTION
#-----    -----               ----   --------------
 DEPTH    .F                  : 1     Name = Domain Curve - Type = DEPTH
 CHKS     .ms (Two Way time)  : 2     Name = Check Shot_1 - Type = Check Shot
 RHOB     .g/cc               : 3     Name = Density_1 - Type = Density
 GR       .gapi               : 4     Name = Gamma Ray_1 - Type = Gamma Ray
 NPHI     .ft3/ft3            : 5     Name = Neutron Porosity_1 - Type = Neutron Porosity
 PHIT	  .ft3/ft3            : 6     Name = Porosity_total_1 - Type = Porosity
 DT       .us/ft              : 7     Name = P-wave_1 - Type = P-wave
~A (ASCII LOG DATA)
# ...
 4824.0000       -999.2500          1.8442         78.9250          0.4536       -999.2500        120.8727
 4824.5000       -999.2500          1.8126         81.4450          0.4801       -999.2500        121.4473
 4825.0000       -999.2500          1.7952         81.0850          0.4872       -999.2500        115.8634
 4825.5000       -999.2500          1.9041         78.3190          0.4698       -999.2500        105.7137
 4826.0000       -999.2500          2.0772         74.4880          0.4323       -999.2500         94.3206
 4826.5000       -999.2500          2.2069         71.5340          0.3864       -999.2500         86.7461
 4827.0000       -999.2500          2.2659         70.0440          0.2971       -999.2500         85.5196
 4827.5000       -999.2500          2.1735         72.2290          0.3206       -999.2500         91.7165
 4828.0000       -999.2500          2.0391         75.0950          0.3920       -999.2500        106.9472
 4828.5000       -999.2500          1.9230         78.6420          0.4399       -999.2500        119.2136
 4829.0000       -999.2500          1.9166         79.7100          0.4473       -999.2500        119.7158
 4829.5000       -999.2500          1.8920         80.8060          0.4412       -999.2500        116.4528
 4830.0000       -999.2500          1.7948         81.8820          0.4516       -999.2500        116.6084
 4830.5000       -999.2500          1.7308         82.9310          0.4736       -999.2500        117.8287
 4831.0000       -999.2500          1.6782         83.4110          0.4719       -999.2500        119.3708
 4831.5000       -999.2500          1.6512         80.9890          0.4745       -999.2500        121.0287
 4832.0000       -999.2500          1.6686         78.4990          0.4568       -999.2500        123.1485
 4832.5000       -999.2500          1.7395         74.8280          0.4280       -999.2500        118.2728
 4833.0000       -999.2500          1.9098         70.7530          0.3896       -999.2500        105.3748
 4833.5000       -999.2500          2.0187         65.0190          0.3413       -999.2500         91.9500
 4834.0000       -999.2500          2.1562         55.3730          0.3167       -999.2500         74.2583
 4834.5000       -999.2500          2.2162         54.1750          0.3235       -999.2500         80.0626
 4835.0000       -999.2500          2.1440         55.7390          0.3197       -999.2500         96.6289
 4835.5000       -999.2500          1.8957         60.4400          0.3022       -999.2500        111.3567
 4836.0000       -999.2500          1.6669         66.1280          0.2831       -999.2500        131.1123
 4836.5000       -999.2500          1.5765         72.0350          0.4152       -999.2500        146.7430
 4837.0000       -999.2500          1.6837         77.7500          0.4793       -999.2500        145.0511
 4837.5000       -999.2500          1.7942         83.1850          0.4768       -999.2500        136.8094
 4838.0000       -999.2500          1.8415         84.7910          0.4872       -999.2500        128.5864
 4838.5000       -999.2500          1.8563         83.3750          0.4883       -999.2500        126.9879
 4839.0000       -999.2500          1.8633         80.1600          0.4804       -999.2500        131.3423
 4839.5000       -999.2500          1.8615         76.3770          0.4517       -999.2500        131.3687
 4840.0000       -999.2500          1.8544         75.9570          0.4500       -999.2500        136.0337
 4840.5000       -999.2500          1.8595         76.9160          0.4453       -999.2500        133.5186
 4841.0000       -999.2500          1.8720         79.2630          0.4400       -999.2500        133.0318
 4841.5000       -999.2500          1.8760         78.2890          0.4525       -999.2500        141.4761
 4842.0000       -999.2500          1.8605         78.0470          0.4750       -999.2500        145.7289
 4842.5000       -999.2500          1.8183         78.4430          0.4760       -999.2500        135.9240
 4843.0000       -999.2500          1.7578         77.5240          0.4724       -999.2500        134.6505
 4843.5000       -999.2500          1.6755         76.6870          0.4760       -999.2500        132.3904
 4844.0000       -999.2500          1.6847         76.4190          0.4493       -999.2500        129.2679
 4844.5000       -999.2500          1.7535         73.6090          0.4263       -999.2500        118.1338
 4845.0000       -999.2500          1.7214         73.3780          0.4224       -999.2500        118.6093
 4845.5000       -999.2500          1.6669         77.5670          0.4192       -999.2500        120.8758
 4846.0000       -999.2500          1.7207         80.3530          0.4158       -999.2500        129.5685
 4846.5000       -999.2500          1.7520         80.1770          0.4172       -999.2500        126.8240
 4847.0000       -999.2500          1.7666         78.8820          0.4210       -999.2500        123.8962
 4847.5000       -999.2500          1.7762         80.2100          0.4288       -999.2500        124.1710
 4848.0000       -999.2500          1.7599         81.7720          0.4431       -999.2500        124.1431
 4848.5000       -999.2500          1.7519         82.0738          0.4617       -999.2500        122.7067
 4849.0000       -999.2500          1.7885         82.3625          0.4681       -999.2500        121.1723
 4849.5000       -999.2500          1.7227         81.1910          0.4628       -999.2500        120.0998
 4850.0000       -999.2500          1.6517         80.1036          0.4681       -999.2500        122.4456
 4850.5000       -999.2500          1.6368         78.4924          0.4944       -999.2500        120.9651
 4851.0000       -999.2500          1.6513         76.6426          0.5204       -999.2500        119.9477
 4851.5000       -999.2500          1.6011         75.6711          0.5086       -999.2500        119.4596
 4852.0000       -999.2500          1.5631         71.1983          0.4921       -999.2500        122.1979
 4852.5000       -999.2500          1.5112         67.2100          0.4790       -999.2500        122.8276
 4853.0000       -999.2500          1.4911         64.5655          0.4840       -999.2500        129.8289
 4853.5000       -999.2500          1.5546         59.5571          0.4798       -999.2500        128.9372
 4854.0000       -999.2500          1.6356         52.8252          0.4253       -999.2500        119.7348
 4854.5000       -999.2500          1.8721         44.4624          0.3547       -999.2500        104.1134
 4855.0000       -999.2500          2.2059         35.5277          0.3243       -999.2500         90.5213
 4855.5000       -999.2500          2.3795         34.6613          0.3267       -999.2500         86.0067
 4856.0000       -999.2500          2.4037         36.0525          0.3388       -999.2500         87.4800
 4856.5000       -999.2500          2.3626         38.6114          0.3559       -999.2500         90.0090
 4857.0000       -999.2500          2.3241         40.0480          0.3581       -999.2500         91.7257
 4857.5000       -999.2500          2.3033         41.5578          0.3449       -999.2500         92.7002
 4858.0000       -999.2500          2.2960         43.2516          0.3380       -999.2500         91.9255
 4858.5000       -999.2500          2.2988         45.4740          0.3415       -999.2500         90.8598
 4859.0000       -999.2500          2.3053         47.6216          0.3472       -999.2500         91.8996
 4859.5000       -999.2500          2.3136         49.5198          0.3527       -999.2500         94.1060
 4860.0000       -999.2500          2.3210         49.9924          0.3535       -999.2500         95.0431
 4860.5000       -999.2500          2.3156         49.9957          0.3398       -999.2500         96.4486
 4861.0000       -999.2500          2.2957         51.9503          0.3189       -999.2500         97.5151
