~VERSION INFORMATION
 VERS.                          2.0   : CWLS LOG ASCII STANDARD - VERSION 2.0
 WRAP.                          NO    : ONE LINE PER DEPTH STEP
#
~Well Information Section
#MNEM     .UNIT     DATA                DESCRIPTION
#-----    -----     --------            --------------
 STRT     .F        100.0000            : START DEPTH
 STOP     .F        7130.0000           : END DEPTH
 STEP     .F        0.0000              : INCREMENT DEPTH
 NULL     .         -999.2500           : NULL VALUE
 COMP     .                              :
 WELL     .         WELL-01             : WELL NAME
 EKB      .F        92.0000             : KELLY BUSHING ELEVATION
 EGL      .F        0.0000              : GROUND LEVEL ELEVATION
 EPD      .F        0.0000              : PERMANENT DATUM ELEVATION
 FLD      .                              :
 LOC      . X = 2002.0000 Y = 2378.0000: WELL LOCATION
 PROV     .                              :
 SRVC     .                              :
 PROV     .                              :
 DATE     .                              :
 API      .                              :
#
~Curve Information Section
#MNEM     .UNIT               Curve #DESCRIPTION
#-----    -----               ----   --------------
 DEPTH    .F                  : 1     Name = Domain Curve - Type = DEPTH
 CHKS     .ms (Two Way time)  : 2     Name = Check Shot_1 - Type = Check Shot
 RHOB     .g/cc               : 3     Name = Density_1 - Type = Density
 GR       .gapi               : 4     Name = Gamma Ray_1 - Type = Gamma Ray
 NPHI     .ft3/ft3            : 5     Name = Neutron Porosity_1 - Type = Neutron Porosity
 PHIT	  .ft3/ft3            : 6     Name = Porosity_total_1 - Type = Porosity
 DT       .us/ft              : 7     Name = P-wave_1 - Type = P-wave
~A (ASCII LOG DATA)
# ...
 5461.5000       -999.2500          1.7929         78.9302          0.4620       -999.2500        117.6849
 5462.0000       -999.2500          1.7822         79.4870          0.4592       -999.2500        117.4115
 5462.5000       -999.2500          1.7923         80.3402          0.4609       -999.2500        117.6643
 5463.0000       -999.2500          1.7972         81.1031          0.4740       -999.2500        118.1404
 5463.5000       -999.2500          1.7748         82.9681          0.4941       -999.2500        118.4722
 5464.0000       -999.2500          1.7441         84.2772          0.4973       -999.2500        117.6678
 5464.5000       -999.2500          1.7582         84.5997          0.4998       -999.2500        117.6933
 5465.0000       -999.2500          1.8061         84.9438          0.5094       -999.2500        118.4330
 5465.5000       -999.2500          1.8181         84.5218          0.5195       -999.2500        118.6027
 5466.0000       -999.2500          1.8016         83.4279          0.5221       -999.2500        118.4187
 5466.5000       -999.2500          1.8104         82.1008          0.5070       -999.2500        117.8345
 5467.0000       -999.2500          1.8301         82.1197          0.4869       -999.2500        116.6389
 5467.5000       -999.2500          1.8188         83.1897          0.4801       -999.2500        115.9277
 5468.0000       -999.2500          1.8068         83.8377          0.4855       -999.2500        116.1031
 5468.5000       -999.2500          1.8173         84.2413          0.4940       -999.2500        116.5268
 5469.0000       -999.2500          1.8385         84.3436          0.5018       -999.2500        116.3305
 5469.5000       -999.2500          1.8814         83.4471          0.5089       -999.2500        116.1588
 5470.0000       -999.2500          1.9219         81.3188          0.5091       -999.2500        116.1331
 5470.5000       -999.2500          1.9105         78.9085          0.5055       -999.2500        115.7961
 5471.0000       -999.2500          1.8647         77.7667          0.5070       -999.2500        116.5281
 5471.5000       -999.2500          1.8163         78.6374          0.5080       -999.2500        117.9892
 5472.0000       -999.2500          1.7843         80.2727          0.5097       -999.2500        119.2716
 5472.5000       -999.2500          1.8123         81.1291          0.5123       -999.2500        119.5583
 5473.0000       -999.2500          1.8637         81.5713          0.5102       -999.2500        119.7148
 5473.5000       -999.2500          1.9100         82.2953          0.5044       -999.2500        119.8099
 5474.0000       -999.2500          1.9352         82.5227          0.5054       -999.2500        118.7194
 5474.5000       -999.2500          1.9334         81.7413          0.5086       -999.2500        117.6251
 5475.0000       -999.2500          1.9278         81.9339          0.5072       -999.2500        117.9644
 5475.5000       -999.2500          1.9181         82.8564          0.5054       -999.2500        117.5169
 5476.0000       -999.2500          1.9313         83.8436          0.4906       -999.2500        117.4380
 5476.5000       -999.2500          1.9228         84.5772          0.4776       -999.2500        117.8060
 5477.0000       -999.2500          1.9285         84.2235          0.4883       -999.2500        117.9059
 5477.5000       -999.2500          1.9169         84.1062          0.4936       -999.2500        117.7312
 5478.0000       -999.2500          1.9119         85.7500          0.4773       -999.2500        117.9654
 5478.5000       -999.2500          1.8750         85.4624          0.4581       -999.2500        118.4608
 5479.0000       -999.2500          1.8870         84.8947          0.4809       -999.2500        118.7383
 5479.5000       -999.2500          1.9109         84.0325          0.4885       -999.2500        119.4916
 5480.0000       -999.2500          1.9384         83.2806          0.4804       -999.2500        121.2411
 5480.5000       -999.2500          1.9608         83.5692          0.4850       -999.2500        122.0282
 5481.0000       -999.2500          1.9632         84.6214          0.4933       -999.2500        120.9320
 5481.5000       -999.2500          1.9683         84.9265          0.5094       -999.2500        121.0160
 5482.0000       -999.2500          1.9607         83.3517          0.5164       -999.2500        115.3212
 5482.5000       -999.2500          1.9148         81.9069          0.5304       -999.2500        114.1339
 5483.0000       -999.2500          1.8548         81.7399          0.5082       -999.2500        120.4419
 5483.5000       -999.2500          1.8173         81.6589          0.5034       -999.2500        128.5254
 5484.0000       -999.2500          1.8093         80.5020          0.4959       -999.2500        129.9580
 5484.5000       -999.2500          1.7881         78.7020          0.4874       -999.2500        124.8374
 5485.0000       -999.2500          1.8005         75.1300          0.4741       -999.2500        113.7844
 5485.5000       -999.2500          1.8678         71.4620          0.4550       -999.2500        101.1869
 5486.0000       -999.2500          1.9925         67.8290          0.4327       -999.2500         94.6276
 5486.5000       -999.2500          2.1674         67.6950          0.3077       -999.2500         92.6029
 5487.0000       -999.2500          2.3215         69.4190          0.2305       -999.2500         93.2550
 5487.5000       -999.2500          2.2469         73.3180          0.2612       -999.2500         95.8543
 5488.0000       -999.2500          2.1569         75.3670          0.3077       -999.2500         96.8314
 5488.5000       -999.2500          2.0871         76.3330          0.3357       -999.2500         99.8698
 5489.0000       -999.2500          2.0191         76.4490          0.3453       -999.2500        102.8741
 5489.5000       -999.2500          1.9418         77.3350          0.3631       -999.2500        102.6482
 5490.0000       -999.2500          1.8425         77.5180          0.3920       -999.2500        105.3765
 5490.5000       -999.2500          1.7564         77.3290          0.3964       -999.2500        107.0722
 5491.0000       -999.2500          1.7446         76.9320          0.3982       -999.2500        105.5410
 5491.5000       -999.2500          1.8100         78.0060          0.3984       -999.2500        104.0675
 5492.0000       -999.2500          1.8628         80.2980          0.3933       -999.2500        100.6484
 5492.5000       -999.2500          1.8874         79.7450          0.4077       -999.2500         95.6899
 5493.0000       -999.2500          1.9154         79.0820          0.4125       -999.2500         96.5319
 5493.5000       -999.2500          1.9175         77.9330          0.4022       -999.2500        109.5744
 5494.0000       -999.2500          1.8605         73.6670          0.4040       -999.2500        122.4419
 5494.5000       -999.2500          1.7952         72.7800          0.4243       -999.2500        128.1016
 5495.0000       -999.2500          1.8127         73.7850          0.4468       -999.2500        117.5177
 5495.5000       -999.2500          1.8810         74.1470          0.4476       -999.2500        106.4674
 5496.0000       -999.2500          1.9872         71.4820          0.4234       -999.2500         96.7729
 5496.5000       -999.2500          2.1105         69.1090          0.3599       -999.2500         90.5282
 5497.0000       -999.2500          2.1145         69.3790          0.3428       -999.2500         86.9177
 5497.5000       -999.2500          2.0371         69.9150          0.3665       -999.2500         88.0462
 5498.0000       -999.2500          1.9254         70.8190          0.4115       -999.2500         99.2697
 5498.5000       -999.2500          1.8582         74.1360          0.4667       -999.2500        107.9134
