~VERSION INFORMATION
 VERS.                          2.0   : CWLS LOG ASCII STANDARD - VERSION 2.0
 WRAP.                          NO    : ONE LINE PER DEPTH STEP
#
~Well Information Section
#MNEM     .UNIT     DATA                DESCRIPTION
#-----    -----     --------            --------------
 STRT     .F        100.0000            : START DEPTH
 STOP     .F        7130.0000           : END DEPTH
 STEP     .F        0.0000              : INCREMENT DEPTH
 NULL     .         -999.2500           : NULL VALUE
 COMP     .                              :
 WELL     .         WELL-01             : WELL NAME
 EKB      .F        92.0000             : KELLY BUSHING ELEVATION
 EGL      .F        0.0000              : GROUND LEVEL ELEVATION
 EPD      .F        0.0000              : PERMANENT DATUM ELEVATION
 FLD      .                              :
 LOC      . X = 2002.0000 Y = 2378.0000: WELL LOCATION
 PROV     .                              :
 SRVC     .                              :
 PROV     .                              :
 DATE     .                              :
 API      .                              :
#
~Curve Information Section
#MNEM     .UNIT               Curve #DESCRIPTION
#-----    -----               ----   --------------
 DEPTH    .F                  : 1     Name = Domain Curve - Type = DEPTH
 CHKS     .ms (Two Way time)  : 2     Name = Check Shot_1 - Type = Check Shot
 RHOB     .g/cc               : 3     Name = Density_1 - Type = Density
 GR       .gapi               : 4     Name = Gamma Ray_1 - Type = Gamma Ray
 NPHI     .ft3/ft3            : 5     Name = Neutron Porosity_1 - Type = Neutron Porosity
 PHIT	  .ft3/ft3            : 6     Name = Porosity_total_1 - Type = Porosity
 DT       .us/ft              : 7     Name = P-wave_1 - Type = P-wave
~A (ASCII LOG DATA)
# ...
 1373.5000       -999.2500          1.8994         17.6510          0.4988       -999.2500       -999.2500
 1374.0000       -999.2500          1.8806         18.0880          0.5196       -999.2500       -999.2500
 1374.5000       -999.2500          1.9046         18.6800          0.5301       -999.2500       -999.2500
 1375.0000       -999.2500          1.9533         19.4280          0.5225       -999.2500       -999.2500
 1375.5000       -999.2500          1.9817         19.2180          0.5085       -999.2500       -999.2500
 1376.0000       -999.2500          1.9913         19.2310          0.5038       -999.2500       -999.2500
 1376.5000       -999.2500          1.9951         19.6590          0.4854       -999.2500       -999.2500
 1377.0000       -999.2500          1.9862         19.6060          0.4672       -999.2500       -999.2500
 1377.5000       -999.2500          2.0056         20.5270          0.4785       -999.2500       -999.2500
 1378.0000       -999.2500          2.0228         21.7330          0.4812       -999.2500       -999.2500
 1378.5000       -999.2500          2.0289         22.5660          0.4744       -999.2500       -999.2500
 1379.0000       -999.2500          2.0238         23.4280          0.4749       -999.2500       -999.2500
 1379.5000       -999.2500          2.0248         23.6950          0.4761       -999.2500       -999.2500
 1380.0000       -999.2500          2.0354         24.8910          0.4726       -999.2500       -999.2500
 1380.5000       -999.2500          2.0291         25.6950          0.4601       -999.2500       -999.2500
 1381.0000       -999.2500          2.0177         25.7650          0.4554       -999.2500       -999.2500
 1381.5000       -999.2500          2.0461         24.9910          0.4494       -999.2500       -999.2500
 1382.0000       -999.2500          2.0331         24.1510          0.4524       -999.2500       -999.2500
 1382.5000       -999.2500          2.0228         23.5760          0.4720       -999.2500       -999.2500
 1383.0000       -999.2500          2.0248         23.1870          0.4767       -999.2500       -999.2500
 1383.5000       -999.2500          2.0340         22.8290          0.4523       -999.2500       -999.2500
 1384.0000       -999.2500          2.0441         22.5660          0.4274       -999.2500       -999.2500
 1384.5000       -999.2500          2.0431         22.5900          0.4322       -999.2500       -999.2500
 1385.0000       -999.2500          2.0461         21.8140          0.4387       -999.2500       -999.2500
 1385.5000       -999.2500          2.0542         21.1040          0.4622       -999.2500       -999.2500
 1386.0000       -999.2500          2.0504         20.6090          0.4554       -999.2500       -999.2500
 1386.5000       -999.2500          2.0604         20.2170          0.4446       -999.2500       -999.2500
 1387.0000       -999.2500          2.0570         20.4280          0.4542       -999.2500       -999.2500
 1387.5000       -999.2500          2.0578         20.4070          0.4613       -999.2500       -999.2500
 1388.0000       -999.2500          2.0715         20.5450          0.4568       -999.2500       -999.2500
 1388.5000       -999.2500          2.0807         21.1670          0.4489       -999.2500       -999.2500
 1389.0000       -999.2500          2.0923         21.8180          0.4341       -999.2500       -999.2500
 1389.5000       -999.2500          2.0959         21.8190          0.4375       -999.2500       -999.2500
 1390.0000       -999.2500          2.0756         22.7890          0.4334       -999.2500       -999.2500
 1390.5000       -999.2500          2.0746         24.1810          0.4358       -999.2500       -999.2500
 1391.0000       -999.2500          2.0844         25.2860          0.4423       -999.2500       -999.2500
 1391.5000       -999.2500          2.0975         25.7680          0.4333       -999.2500       -999.2500
 1392.0000       -999.2500          2.1162         26.6400          0.4227       -999.2500       -999.2500
 1392.5000       -999.2500          2.1162         26.6080          0.4356       -999.2500       -999.2500
 1393.0000       -999.2500          2.1132         25.6860          0.4441       -999.2500       -999.2500
 1393.5000       -999.2500          2.1122         25.3870          0.4530       -999.2500       -999.2500
 1394.0000       -999.2500          2.1081         25.3600          0.4476       -999.2500       -999.2500
 1394.5000       -999.2500          2.1122         24.6010          0.4453       -999.2500       -999.2500
 1395.0000       -999.2500          2.1120         23.7800          0.4559       -999.2500       -999.2500
 1395.5000       -999.2500          2.1132         22.2460          0.4574       -999.2500       -999.2500
 1396.0000       -999.2500          2.1087         21.3230          0.4589       -999.2500       -999.2500
 1396.5000       -999.2500          2.1071         20.7100          0.4607       -999.2500       -999.2500
 1397.0000       -999.2500          2.0968         20.4210          0.4510       -999.2500       -999.2500
 1397.5000       -999.2500          2.0746         19.7520          0.4351       -999.2500       -999.2500
 1398.0000       -999.2500          2.0786         19.4230          0.4194       -999.2500       -999.2500
 1398.5000       -999.2500          2.0771         19.4170          0.4001       -999.2500       -999.2500
 1399.0000       -999.2500          2.0716         19.6080          0.3995       -999.2500       -999.2500
 1399.5000       -999.2500          2.0661         20.0260          0.4019       -999.2500       -999.2500
 1400.0000        763.4300          2.0604         20.4470          0.4003       -999.2500       -999.2500
 1400.5000       -999.2500          2.0583         20.5940          0.4134       -999.2500       -999.2500
 1401.0000       -999.2500          2.0573         20.7620          0.4261       -999.2500       -999.2500
 1401.5000       -999.2500          2.0553         20.8200          0.4388       -999.2500       -999.2500
 1402.0000       -999.2500          2.0730         20.4030          0.4509       -999.2500       -999.2500
 1402.5000       -999.2500          2.0900         20.4220          0.4583       -999.2500       -999.2500
 1403.0000       -999.2500          2.1060         20.6580          0.4509       -999.2500       -999.2500
 1403.5000       -999.2500          2.1182         21.2180          0.4453       -999.2500       -999.2500
 1404.0000       -999.2500          2.1091         20.8360          0.4542       -999.2500       -999.2500
 1404.5000       -999.2500          2.0970         20.3820          0.4638       -999.2500       -999.2500
 1405.0000       -999.2500          2.0959         19.8480          0.4755       -999.2500       -999.2500
 1405.5000       -999.2500          2.0939         20.5470          0.4673       -999.2500       -999.2500
 1406.0000       -999.2500          2.0980         21.0620          0.4631       -999.2500       -999.2500
 1406.5000       -999.2500          2.0949         21.8570          0.4590       -999.2500       -999.2500
 1407.0000       -999.2500          2.0985         22.4410          0.4565       -999.2500       -999.2500
 1407.5000       -999.2500          2.1135         22.7340          0.4442       -999.2500       -999.2500
 1408.0000       -999.2500          2.1284         22.4990          0.4280       -999.2500       -999.2500
 1408.5000       -999.2500          2.1376         21.6010          0.4203       -999.2500       -999.2500
 1409.0000       -999.2500          2.1302         21.2810          0.4215       -999.2500       -999.2500
 1409.5000       -999.2500          2.1143         20.8350          0.4179       -999.2500       -999.2500
 1410.0000       -999.2500          2.1064         20.5720          0.4009       -999.2500       -999.2500
 1410.5000       -999.2500          2.1112         20.6170          0.3918       -999.2500       -999.2500
