~VERSION INFORMATION
 VERS.                          2.0   : CWLS LOG ASCII STANDARD - VERSION 2.0
 WRAP.                          NO    : ONE LINE PER DEPTH STEP
#
~Well Information Section
#MNEM     .UNIT     DATA                DESCRIPTION
#-----    -----     --------            --------------
 STRT     .F        100.0000            : START DEPTH
 STOP     .F        7130.0000           : END DEPTH
 STEP     .F        0.0000              : INCREMENT DEPTH
 NULL     .         -999.2500           : NULL VALUE
 COMP     .                              :
 WELL     .         WELL-01             : WELL NAME
 EKB      .F        92.0000             : KELLY BUSHING ELEVATION
 EGL      .F        0.0000              : GROUND LEVEL ELEVATION
 EPD      .F        0.0000              : PERMANENT DATUM ELEVATION
 FLD      .                              :
 LOC      . X = 2002.0000 Y = 2378.0000: WELL LOCATION
 PROV     .                              :
 SRVC     .                              :
 PROV     .                              :
 DATE     .                              :
 API      .                              :
#
~Curve Information Section
#MNEM     .UNIT               Curve #DESCRIPTION
#-----    -----               ----   --------------
 DEPTH    .F                  : 1     Name = Domain Curve - Type = DEPTH
 CHKS     .ms (Two Way time)  : 2     Name = Check Shot_1 - Type = Check Shot
 RHOB     .g/cc               : 3     Name = Density_1 - Type = Density
 GR       .gapi               : 4     Name = Gamma Ray_1 - Type = Gamma Ray
 NPHI     .ft3/ft3            : 5     Name = Neutron Porosity_1 - Type = Neutron Porosity
 PHIT	  .ft3/ft3            : 6     Name = Porosity_total_1 - Type = Porosity
 DT       .us/ft              : 7     Name = P-wave_1 - Type = P-wave
~A (ASCII LOG DATA)
# ...
 1673.5000       -999.2500          2.1071         26.1680          0.3550       -999.2500       -999.2500
 1674.0000       -999.2500          2.0533         29.3970          0.3726       -999.2500       -999.2500
 1674.5000       -999.2500          2.0594         33.1200          0.3878       -999.2500       -999.2500
 1675.0000       -999.2500          2.0665         34.6620          0.4005       -999.2500       -999.2500
 1675.5000       -999.2500          2.0441         36.3990          0.4208       -999.2500       -999.2500
 1676.0000       -999.2500          2.0370         37.6120          0.4405       -999.2500       -999.2500
 1676.5000       -999.2500          2.1074         39.3660          0.4247       -999.2500       -999.2500
 1677.0000       -999.2500          2.1587         41.9370          0.3936       -999.2500       -999.2500
 1677.5000       -999.2500          2.1752         44.5950          0.3858       -999.2500       -999.2500
 1678.0000       -999.2500          2.1315         47.4410          0.3930       -999.2500       -999.2500
 1678.5000       -999.2500          2.1203         48.5110          0.3977       -999.2500       -999.2500
 1679.0000       -999.2500          2.1427         47.9400          0.3894       -999.2500       -999.2500
 1679.5000       -999.2500          2.0533         44.0090          0.4267       -999.2500       -999.2500
 1680.0000       -999.2500          2.0707         41.1140          0.4548       -999.2500       -999.2500
 1680.5000       -999.2500          2.0644         40.2770          0.4583       -999.2500       -999.2500
 1681.0000       -999.2500          2.0522         40.4550          0.4494       -999.2500       -999.2500
 1681.5000       -999.2500          2.0644         39.4790          0.4611       -999.2500       -999.2500
 1682.0000       -999.2500          2.0685         38.6110          0.4812       -999.2500       -999.2500
 1682.5000       -999.2500          2.0594         37.1010          0.5000       -999.2500       -999.2500
 1683.0000       -999.2500          2.0429         33.7290          0.5041       -999.2500       -999.2500
 1683.5000       -999.2500          2.0299         32.0620          0.4993       -999.2500       -999.2500
 1684.0000       -999.2500          2.0248         31.1150          0.5010       -999.2500       -999.2500
 1684.5000       -999.2500          2.0157         31.2830          0.5041       -999.2500       -999.2500
 1685.0000       -999.2500          2.0289         32.4020          0.4910       -999.2500       -999.2500
 1685.5000       -999.2500          2.0039         32.9880          0.4660       -999.2500       -999.2500
 1686.0000       -999.2500          1.9882         33.5720          0.4245       -999.2500       -999.2500
 1686.5000       -999.2500          2.0187         33.0140          0.4496       -999.2500       -999.2500
 1687.0000       -999.2500          1.9974         32.0490          0.4684       -999.2500       -999.2500
 1687.5000       -999.2500          2.0147         29.6940          0.4631       -999.2500       -999.2500
 1688.0000       -999.2500          2.0370         26.6800          0.4726       -999.2500       -999.2500
 1688.5000       -999.2500          2.0380         23.1360          0.4785       -999.2500       -999.2500
 1689.0000       -999.2500          2.0656         20.5010          0.4642       -999.2500       -999.2500
 1689.5000       -999.2500          2.0583         19.8450          0.4399       -999.2500       -999.2500
 1690.0000       -999.2500          2.0604         19.3820          0.4340       -999.2500       -999.2500
 1690.5000       -999.2500          2.0530         18.4340          0.4494       -999.2500       -999.2500
 1691.0000       -999.2500          2.0412         17.6500          0.4767       -999.2500       -999.2500
 1691.5000       -999.2500          2.0309         17.1970          0.4714       -999.2500       -999.2500
 1692.0000       -999.2500          2.0238         16.8390          0.4666       -999.2500       -999.2500
 1692.5000       -999.2500          2.0197         18.2490          0.4755       -999.2500       -999.2500
 1693.0000       -999.2500          2.0228         19.2240          0.4767       -999.2500       -999.2500
 1693.5000       -999.2500          2.0270         20.2320          0.4714       -999.2500       -999.2500
 1694.0000       -999.2500          2.0126         21.1450          0.4660       -999.2500       -999.2500
 1694.5000       -999.2500          2.0248         21.6530          0.4411       -999.2500       -999.2500
 1695.0000       -999.2500          2.0319         22.4810          0.4155       -999.2500       -999.2500
 1695.5000       -999.2500          2.0208         23.8150          0.4049       -999.2500       -999.2500
 1696.0000       -999.2500          2.0431         25.0880          0.4161       -999.2500       -999.2500
 1696.5000       -999.2500          2.0563         27.7390          0.4233       -999.2500       -999.2500
 1697.0000       -999.2500          2.0725         28.5680          0.4286       -999.2500       -999.2500
 1697.5000       -999.2500          2.0888         28.4710          0.4054       -999.2500       -999.2500
 1698.0000       -999.2500          2.0865         28.2470          0.4099       -999.2500       -999.2500
 1698.5000       -999.2500          2.0756         29.7170          0.4210       -999.2500       -999.2500
 1699.0000       -999.2500          2.0685         30.9780          0.4292       -999.2500       -999.2500
 1699.5000       -999.2500          2.0837         31.4210          0.4310       -999.2500       -999.2500
 1700.0000        775.5200          2.0919         30.9300          0.4227       -999.2500       -999.2500
 1700.5000       -999.2500          2.0959         30.8130          0.4125       -999.2500       -999.2500
 1701.0000       -999.2500          2.0888         30.2970          0.3940       -999.2500       -999.2500
 1701.5000       -999.2500          2.0817         29.6720          0.3702       -999.2500       -999.2500
 1702.0000       -999.2500          2.0878         28.6660          0.3746       -999.2500       -999.2500
 1702.5000       -999.2500          2.0713         28.5180          0.3882       -999.2500       -999.2500
 1703.0000       -999.2500          2.0370         29.0970          0.3921       -999.2500       -999.2500
 1703.5000       -999.2500          2.0604         29.6770          0.3805       -999.2500       -999.2500
 1704.0000       -999.2500          2.1061         30.3440          0.3736       -999.2500       -999.2500
 1704.5000       -999.2500          2.1112         32.8920          0.3662       -999.2500       -999.2500
 1705.0000       -999.2500          2.1183         36.1260          0.3585       -999.2500       -999.2500
 1705.5000       -999.2500          2.1173         39.3810          0.3707       -999.2500       -999.2500
 1706.0000       -999.2500          2.0973         41.8310          0.3858       -999.2500       -999.2500
 1706.5000       -999.2500          2.0543         42.7180          0.3771       -999.2500       -999.2500
 1707.0000       -999.2500          2.0656         41.2320          0.3603       -999.2500       -999.2500
 1707.5000       -999.2500          2.0888         38.2980          0.3591       -999.2500       -999.2500
 1708.0000       -999.2500          2.0526         35.8150          0.3740       -999.2500       -999.2500
 1708.5000       -999.2500          2.0136         34.6270          0.3817       -999.2500       -999.2500
 1709.0000       -999.2500          2.0534         34.6080          0.3818       -999.2500       -999.2500
 1709.5000       -999.2500          2.1121         34.6200          0.3734       -999.2500       -999.2500
 1710.0000       -999.2500          2.1662         34.6630          0.3638       -999.2500       -999.2500
 1710.5000       -999.2500          2.1904         34.4210          0.3312       -999.2500       -999.2500
