~VERSION INFORMATION
 VERS.                          2.0   : CWLS LOG ASCII STANDARD - VERSION 2.0
 WRAP.                          NO    : ONE LINE PER DEPTH STEP
#
~Well Information Section
#MNEM     .UNIT     DATA                DESCRIPTION
#-----    -----     --------            --------------
 STRT     .F        100.0000            : START DEPTH
 STOP     .F        7130.0000           : END DEPTH
 STEP     .F        0.0000              : INCREMENT DEPTH
 NULL     .         -999.2500           : NULL VALUE
 COMP     .                              :
 WELL     .         WELL-01             : WELL NAME
 EKB      .F        92.0000             : KELLY BUSHING ELEVATION
 EGL      .F        0.0000              : GROUND LEVEL ELEVATION
 EPD      .F        0.0000              : PERMANENT DATUM ELEVATION
 FLD      .                              :
 LOC      . X = 2002.0000 Y = 2378.0000: WELL LOCATION
 PROV     .                              :
 SRVC     .                              :
 PROV     .                              :
 DATE     .                              :
 API      .                              :
#
~Curve Information Section
#MNEM     .UNIT               Curve #DESCRIPTION
#-----    -----               ----   --------------
 DEPTH    .F                  : 1     Name = Domain Curve - Type = DEPTH
 CHKS     .ms (Two Way time)  : 2     Name = Check Shot_1 - Type = Check Shot
 RHOB     .g/cc               : 3     Name = Density_1 - Type = Density
 GR       .gapi               : 4     Name = Gamma Ray_1 - Type = Gamma Ray
 NPHI     .ft3/ft3            : 5     Name = Neutron Porosity_1 - Type = Neutron Porosity
 PHIT	  .ft3/ft3            : 6     Name = Porosity_total_1 - Type = Porosity
 DT       .us/ft              : 7     Name = P-wave_1 - Type = P-wave
~A (ASCII LOG DATA)
# ...
 3511.5000       -999.2500          2.0450         68.9965          0.3680       -999.2500        126.3998
 3512.0000       -999.2500          2.0224         68.1115          0.3603       -999.2500        126.8870
 3512.5000       -999.2500          2.0173         67.1176          0.3649       -999.2500        129.0014
 3513.0000       -999.2500          2.0170         66.9660          0.4017       -999.2500        128.9813
 3513.5000       -999.2500          1.9963         68.6834          0.4292       -999.2500        130.5564
 3514.0000       -999.2500          1.9845         74.0545          0.4261       -999.2500        129.5496
 3514.5000       -999.2500          2.0513         80.0627          0.4096       -999.2500        135.9249
 3515.0000       -999.2500          2.1697         82.6140          0.4091       -999.2500        139.1248
 3515.5000       -999.2500          2.2288         81.3079          0.4063       -999.2500        135.6255
 3516.0000       -999.2500          2.2343         77.4511          0.4064       -999.2500        134.6821
 3516.5000       -999.2500          2.2073         76.8729          0.4214       -999.2500        136.2823
 3517.0000       -999.2500          2.1862         77.8163          0.4381       -999.2500        137.5761
 3517.5000       -999.2500          2.2021         79.6293          0.4387       -999.2500        139.6143
 3518.0000       -999.2500          2.2309         81.1678          0.4354       -999.2500        139.6019
 3518.5000       -999.2500          2.2365         82.6558          0.4354       -999.2500        125.6818
 3519.0000       -999.2500          2.2227         83.6559          0.4288       -999.2500        132.4405
 3519.5000       -999.2500          2.2090         85.5749          0.4177       -999.2500        142.2323
 3520.0000       -999.2500          2.2064         85.2473          0.4005       -999.2500        148.3643
 3520.5000       -999.2500          2.2096         82.4416          0.4005       -999.2500        150.7953
 3521.0000       -999.2500          2.2104         79.2658          0.4055       -999.2500        151.7621
 3521.5000       -999.2500          2.2065         77.6741          0.4067       -999.2500        149.0930
 3522.0000       -999.2500          2.1996         78.5225          0.4132       -999.2500        147.9795
 3522.5000       -999.2500          2.1834         80.8324          0.4280       -999.2500        152.7638
 3523.0000       -999.2500          2.1542         82.3012          0.4339       -999.2500        156.5341
 3523.5000       -999.2500          2.1411         81.9877          0.4258       -999.2500        155.1485
 3524.0000       -999.2500          2.1402         78.3810          0.4063       -999.2500        146.7390
 3524.5000       -999.2500          2.1251         71.7053          0.3877       -999.2500        153.0055
 3525.0000       -999.2500          2.1141         65.8662          0.3734       -999.2500        154.8230
 3525.5000       -999.2500          2.0918         60.1032          0.3633       -999.2500        154.4845
 3526.0000       -999.2500          2.0798         57.1277          0.3616       -999.2500        156.3554
 3526.5000       -999.2500          2.0755         54.6614          0.3518       -999.2500        149.0049
 3527.0000       -999.2500          2.0846         53.5521          0.3444       -999.2500        153.1180
 3527.5000       -999.2500          2.0584         53.4832          0.3499       -999.2500        146.0420
 3528.0000       -999.2500          1.9854         54.0080          0.3579       -999.2500        138.0165
 3528.5000       -999.2500          1.9868         54.4979          0.3706       -999.2500        127.8703
 3529.0000       -999.2500          1.9977         56.0471          0.3792       -999.2500        135.2514
 3529.5000       -999.2500          2.0255         57.0510          0.3651       -999.2500        128.5324
 3530.0000       -999.2500          2.1215         57.5729          0.3370       -999.2500        119.6935
 3530.5000       -999.2500          2.1771         57.7700          0.3162       -999.2500        119.3537
 3531.0000       -999.2500          2.1915         57.7121          0.2973       -999.2500        120.2335
 3531.5000       -999.2500          2.1864         57.1660          0.3015       -999.2500        119.7286
 3532.0000       -999.2500          2.1758         56.9362          0.3200       -999.2500        118.0703
 3532.5000       -999.2500          2.1712         58.0507          0.3299       -999.2500        116.8373
 3533.0000       -999.2500          2.1738         57.7733          0.3287       -999.2500        114.7530
 3533.5000       -999.2500          2.1830         57.5965          0.3242       -999.2500        114.9940
 3534.0000       -999.2500          2.1935         57.8242          0.3168       -999.2500        116.2735
 3534.5000       -999.2500          2.2055         57.7532          0.3174       -999.2500        115.5772
 3535.0000       -999.2500          2.2102         57.5893          0.3174       -999.2500        114.6422
 3535.5000       -999.2500          2.2040         57.7114          0.3103       -999.2500        113.8589
 3536.0000       -999.2500          2.2019         58.1809          0.3019       -999.2500        113.9181
 3536.5000       -999.2500          2.2059         58.6601          0.2939       -999.2500        114.8617
 3537.0000       -999.2500          2.2119         59.2885          0.2887       -999.2500        115.0876
 3537.5000       -999.2500          2.2200         60.0362          0.2858       -999.2500        115.6906
 3538.0000       -999.2500          2.2266         60.5549          0.2835       -999.2500        116.8001
 3538.5000       -999.2500          2.2278         59.6184          0.2830       -999.2500        116.6916
 3539.0000       -999.2500          2.2223         57.2135          0.2846       -999.2500        115.6566
 3539.5000       -999.2500          2.1997         55.3068          0.2863       -999.2500        114.2345
 3540.0000       -999.2500          2.1742         54.5312          0.2906       -999.2500        113.7580
 3540.5000       -999.2500          2.1528         53.7445          0.3015       -999.2500        115.1407
 3541.0000       -999.2500          2.1460         52.8273          0.3170       -999.2500        116.0160
 3541.5000       -999.2500          2.1286         52.8893          0.3431       -999.2500        114.9910
 3542.0000       -999.2500          2.0948         53.2836          0.3542       -999.2500        113.6746
 3542.5000       -999.2500          2.0837         52.5237          0.3455       -999.2500        112.1308
 3543.0000       -999.2500          2.0890         51.0398          0.3416       -999.2500        111.1353
 3543.5000       -999.2500          2.0942         50.2138          0.3458       -999.2500        112.6237
 3544.0000       -999.2500          2.0918         50.7005          0.3612       -999.2500        116.1357
 3544.5000       -999.2500          2.1144         52.7891          0.3775       -999.2500        117.8626
 3545.0000       -999.2500          2.1718         57.4179          0.3750       -999.2500        119.1539
 3545.5000       -999.2500          2.2275         63.4212          0.3620       -999.2500        120.5841
 3546.0000       -999.2500          2.2666         69.4910          0.3602       -999.2500        118.5332
 3546.5000       -999.2500          2.2811         74.9631          0.3726       -999.2500        117.5793
 3547.0000       -999.2500          2.2630         78.9956          0.3905       -999.2500        118.9017
 3547.5000       -999.2500          2.2273         82.4673          0.4068       -999.2500        120.1352
 3548.0000       -999.2500          2.1991         84.6285          0.4152       -999.2500        124.6646
 3548.5000       -999.2500          2.1787         85.1702          0.4210       -999.2500        130.9070
