~VERSION INFORMATION
 VERS.                          2.0   : CWLS LOG ASCII STANDARD - VERSION 2.0
 WRAP.                          NO    : ONE LINE PER DEPTH STEP
#
~Well Information Section
#MNEM     .UNIT     DATA                DESCRIPTION
#-----    -----     --------            --------------
 STRT     .F        100.0000            : START DEPTH
 STOP     .F        7130.0000           : END DEPTH
 STEP     .F        0.0000              : INCREMENT DEPTH
 NULL     .         -999.2500           : NULL VALUE
 COMP     .                              :
 WELL     .         WELL-01             : WELL NAME
 EKB      .F        92.0000             : KELLY BUSHING ELEVATION
 EGL      .F        0.0000              : GROUND LEVEL ELEVATION
 EPD      .F        0.0000              : PERMANENT DATUM ELEVATION
 FLD      .                              :
 LOC      . X = 2002.0000 Y = 2378.0000: WELL LOCATION
 PROV     .                              :
 SRVC     .                              :
 PROV     .                              :
 DATE     .                              :
 API      .                              :
#
~Curve Information Section
#MNEM     .UNIT               Curve #DESCRIPTION
#-----    -----               ----   --------------
 DEPTH    .F                  : 1     Name = Domain Curve - Type = DEPTH
 CHKS     .ms (Two Way time)  : 2     Name = Check Shot_1 - Type = Check Shot
 RHOB     .g/cc               : 3     Name = Density_1 - Type = Density
 GR       .gapi               : 4     Name = Gamma Ray_1 - Type = Gamma Ray
 NPHI     .ft3/ft3            : 5     Name = Neutron Porosity_1 - Type = Neutron Porosity
 PHIT	  .ft3/ft3            : 6     Name = Porosity_total_1 - Type = Porosity
 DT       .us/ft              : 7     Name = P-wave_1 - Type = P-wave
~A (ASCII LOG DATA)
# ...
 5124.0000       -999.2500          1.8037         76.4315          0.4164       -999.2500        117.1394
 5124.5000       -999.2500          1.8336         76.1173          0.4153       -999.2500        117.8368
 5125.0000       -999.2500          1.8482         76.5834          0.4310       -999.2500        119.1329
 5125.5000       -999.2500          1.8535         77.3172          0.4435       -999.2500        119.9581
 5126.0000       -999.2500          1.8668         77.3332          0.4486       -999.2500        120.9463
 5126.5000       -999.2500          1.8953         78.3240          0.4491       -999.2500        120.3260
 5127.0000       -999.2500          1.9079         80.0084          0.4477       -999.2500        121.2442
 5127.5000       -999.2500          1.8563         81.3647          0.4390       -999.2500        122.0259
 5128.0000       -999.2500          1.7858         80.7016          0.4180       -999.2500        128.1906
 5128.5000       -999.2500          1.7586         80.2531          0.3996       -999.2500        127.0645
 5129.0000       -999.2500          1.7379         79.4794          0.3914       -999.2500        126.8719
 5129.5000       -999.2500          1.7406         79.2054          0.3767       -999.2500        130.9054
 5130.0000       -999.2500          1.7584         78.8961          0.3795       -999.2500        130.1285
 5130.5000       -999.2500          1.7651         78.1972          0.3944       -999.2500        131.4329
 5131.0000       -999.2500          1.7479         77.5724          0.3919       -999.2500        130.1544
 5131.5000       -999.2500          1.7445         78.0207          0.3960       -999.2500        130.8647
 5132.0000       -999.2500          1.7388         78.8443          0.4054       -999.2500        120.8961
 5132.5000       -999.2500          1.7278         79.5672          0.3907       -999.2500        121.3134
 5133.0000       -999.2500          1.6722         80.3487          0.3997       -999.2500        120.6380
 5133.5000       -999.2500          1.6069         81.4276          0.4143       -999.2500        122.2507
 5134.0000       -999.2500          1.5211         81.7530          0.4310       -999.2500        127.1091
 5134.5000       -999.2500          1.4871         82.0894          0.4496       -999.2500        117.4873
 5135.0000       -999.2500          1.4550         78.7251          0.4513       -999.2500        123.1467
 5135.5000       -999.2500          1.4483         74.6076          0.4536       -999.2500        125.3422
 5136.0000       -999.2500          1.4461         72.4410          0.4633       -999.2500        129.2356
 5136.5000       -999.2500          1.4460         70.9096          0.4787       -999.2500        129.3735
 5137.0000       -999.2500          1.4479         71.0421          0.5000       -999.2500        128.3017
 5137.5000       -999.2500          1.4787         71.0665          0.4867       -999.2500        127.8017
 5138.0000       -999.2500          1.5723         69.7775          0.4565       -999.2500        122.5204
 5138.5000       -999.2500          1.7504         69.6181          0.4332       -999.2500        116.5990
 5139.0000       -999.2500          1.9446         68.5563          0.4373       -999.2500        114.4190
 5139.5000       -999.2500          2.0375         70.4401          0.4379       -999.2500        110.0972
 5140.0000       -999.2500          2.0292         74.1574          0.4352       -999.2500        115.3872
 5140.5000       -999.2500          2.0154         78.0733          0.4406       -999.2500        120.9101
 5141.0000       -999.2500          1.9747         81.9150          0.4605       -999.2500        120.1460
 5141.5000       -999.2500          1.8916         84.0807          0.4759       -999.2500        122.2251
 5142.0000       -999.2500          1.8140         84.2121          0.4566       -999.2500        121.7117
 5142.5000       -999.2500          1.7706         82.5020          0.4334       -999.2500        116.7763
 5143.0000       -999.2500          1.7278         80.3842          0.4156       -999.2500        112.7297
 5143.5000       -999.2500          1.7132         77.9421          0.4387       -999.2500        108.8673
 5144.0000       -999.2500          1.7486         77.7604          0.4626       -999.2500        106.8161
 5144.5000       -999.2500          1.7690         77.8838          0.4791       -999.2500        106.1780
 5145.0000       -999.2500          1.7494         76.7948          0.4742       -999.2500        106.4137
 5145.5000       -999.2500          1.8090         77.3170          0.4343       -999.2500        105.5593
 5146.0000       -999.2500          1.8985         78.0134          0.3882       -999.2500        108.1282
 5146.5000       -999.2500          1.9969         79.0981          0.3519       -999.2500        112.8625
 5147.0000       -999.2500          2.0550         79.5147          0.3427       -999.2500        117.5198
 5147.5000       -999.2500          1.9910         78.4104          0.3568       -999.2500        120.4011
 5148.0000       -999.2500          1.8793         77.0517          0.3746       -999.2500        119.6847
 5148.5000       -999.2500          1.7797         77.8393          0.3972       -999.2500        116.8956
 5149.0000       -999.2500          1.7317         78.7833          0.4114       -999.2500        114.5210
 5149.5000       -999.2500          1.7313         79.1375          0.4168       -999.2500        114.6458
 5150.0000       -999.2500          1.7597         80.0917          0.4111       -999.2500        116.5453
 5150.5000       -999.2500          1.8026         81.4524          0.3839       -999.2500        120.1240
 5151.0000       -999.2500          1.9516         82.7137          0.3406       -999.2500        124.0828
 5151.5000       -999.2500          2.0925         82.9843          0.3167       -999.2500        122.1510
 5152.0000       -999.2500          2.1467         81.7885          0.3222       -999.2500        115.6126
 5152.5000       -999.2500          2.1608         80.1722          0.3381       -999.2500        113.2934
 5153.0000       -999.2500          2.1028         78.7810          0.3621       -999.2500        113.5853
 5153.5000       -999.2500          2.0052         76.8254          0.3866       -999.2500        113.0960
 5154.0000       -999.2500          1.9204         75.3374          0.4078       -999.2500        113.9685
 5154.5000       -999.2500          1.8432         75.6787          0.4326       -999.2500        116.6046
 5155.0000       -999.2500          1.7878         76.6430          0.4541       -999.2500        118.4438
 5155.5000       -999.2500          1.7776         76.7074          0.4682       -999.2500        116.8728
 5156.0000       -999.2500          1.7725         75.8670          0.4823       -999.2500        114.8368
 5156.5000       -999.2500          1.7521         75.7101          0.4814       -999.2500        113.8278
 5157.0000       -999.2500          1.7482         76.8233          0.4642       -999.2500        112.3915
 5157.5000       -999.2500          1.7398         78.4314          0.4583       -999.2500        112.2056
 5158.0000       -999.2500          1.7110         78.7806          0.4447       -999.2500        115.0407
 5158.5000       -999.2500          1.7039         76.9169          0.4377       -999.2500        119.6846
 5159.0000       -999.2500          1.7202         75.6446          0.4537       -999.2500        123.0228
 5159.5000       -999.2500          1.7294         76.3588          0.4655       -999.2500        122.8788
 5160.0000       -999.2500          1.7590         76.8503          0.4699       -999.2500        121.3724
 5160.5000       -999.2500          1.8288         77.0284          0.4676       -999.2500        119.0808
 5161.0000       -999.2500          1.8624         77.1350          0.4643       -999.2500        117.5473
