~VERSION INFORMATION
 VERS.                          2.0   : CWLS LOG ASCII STANDARD - VERSION 2.0
 WRAP.                          NO    : ONE LINE PER DEPTH STEP
#
~Well Information Section
#MNEM     .UNIT     DATA                DESCRIPTION
#-----    -----     --------            --------------
 STRT     .F        100.0000            : START DEPTH
 STOP     .F        7130.0000           : END DEPTH
 STEP     .F        0.0000              : INCREMENT DEPTH
 NULL     .         -999.2500           : NULL VALUE
 COMP     .                              :
 WELL     .         WELL-01             : WELL NAME
 EKB      .F        92.0000             : KELLY BUSHING ELEVATION
 EGL      .F        0.0000              : GROUND LEVEL ELEVATION
 EPD      .F        0.0000              : PERMANENT DATUM ELEVATION
 FLD      .                              :
 LOC      . X = 2002.0000 Y = 2378.0000: WELL LOCATION
 PROV     .                              :
 SRVC     .                              :
 PROV     .                              :
 DATE     .                              :
 API      .                              :
#
~Curve Information Section
#MNEM     .UNIT               Curve #DESCRIPTION
#-----    -----               ----   --------------
 DEPTH    .F                  : 1     Name = Domain Curve - Type = DEPTH
 CHKS     .ms (Two Way time)  : 2     Name = Check Shot_1 - Type = Check Shot
 RHOB     .g/cc               : 3     Name = Density_1 - Type = Density
 GR       .gapi               : 4     Name = Gamma Ray_1 - Type = Gamma Ray
 NPHI     .ft3/ft3            : 5     Name = Neutron Porosity_1 - Type = Neutron Porosity
 PHIT	  .ft3/ft3            : 6     Name = Porosity_total_1 - Type = Porosity
 DT       .us/ft              : 7     Name = P-wave_1 - Type = P-wave
~A (ASCII LOG DATA)
# ...
 4186.5000       -999.2500          2.0060         77.6837          0.4358       -999.2500        134.7407
 4187.0000       -999.2500          2.0205         80.8188          0.4390       -999.2500        130.7570
 4187.5000       -999.2500          1.9992         82.8799          0.4351       -999.2500        129.6212
 4188.0000       -999.2500          2.0054         85.2492          0.4285       -999.2500        133.2355
 4188.5000       -999.2500          2.0151         86.3583          0.4238       -999.2500        140.7982
 4189.0000       -999.2500          2.0356         84.6423          0.4242       -999.2500        142.6250
 4189.5000       -999.2500          2.0677         81.3223          0.4306       -999.2500        142.0497
 4190.0000       -999.2500          2.0915         77.7322          0.4364       -999.2500        137.3490
 4190.5000       -999.2500          2.0877         75.6280          0.4371       -999.2500        131.4168
 4191.0000       -999.2500          2.0483         73.6677          0.4386       -999.2500        132.6088
 4191.5000       -999.2500          2.0101         71.2670          0.4404       -999.2500        133.8550
 4192.0000       -999.2500          1.9922         68.6397          0.4379       -999.2500        128.2475
 4192.5000       -999.2500          2.0123         66.0298          0.4489       -999.2500        120.6295
 4193.0000       -999.2500          2.0493         61.5701          0.4520       -999.2500        113.9567
 4193.5000       -999.2500          2.0312         57.9483          0.4493       -999.2500        109.0402
 4194.0000       -999.2500          1.9552         54.5590          0.4440       -999.2500        108.4840
 4194.5000       -999.2500          1.9682         65.6976          0.4391       -999.2500        111.5866
 4195.0000       -999.2500          2.0056         72.7293          0.4250       -999.2500        114.7271
 4195.5000       -999.2500          2.0879         71.9575          0.4088       -999.2500        124.4561
 4196.0000       -999.2500          2.1770         73.5163          0.3936       -999.2500        133.4646
 4196.5000       -999.2500          2.2246         73.8836          0.3868       -999.2500        144.1525
 4197.0000       -999.2500          2.2214         74.3949          0.3931       -999.2500        154.3807
 4197.5000       -999.2500          2.1920         74.1143          0.4142       -999.2500        160.8677
 4198.0000       -999.2500          2.1696         73.8348          0.4350       -999.2500        162.1201
 4198.5000       -999.2500          2.1325         75.4033          0.4426       -999.2500        163.7695
 4199.0000       -999.2500          2.0982         78.4722          0.4387       -999.2500        166.5948
 4199.5000       -999.2500          2.0818         81.6558          0.4401       -999.2500        162.6751
 4200.0000       1108.3300          2.0740         83.3430          0.4403       -999.2500        159.4935
 4200.5000       -999.2500          2.0554         81.7852          0.4416       -999.2500        157.7878
 4201.0000       -999.2500          2.0468         79.7582          0.4528       -999.2500        151.6029
 4201.5000       -999.2500          2.0681         79.7325          0.4580       -999.2500        144.4176
 4202.0000       -999.2500          2.0975         80.1773          0.4567       -999.2500        137.0435
 4202.5000       -999.2500          2.1348         80.9511          0.4484       -999.2500        130.5043
 4203.0000       -999.2500          2.1940         79.7126          0.4374       -999.2500        124.7701
 4203.5000       -999.2500          2.2429         76.8977          0.4248       -999.2500        121.7304
 4204.0000       -999.2500          2.2768         76.7278          0.4011       -999.2500        121.9579
 4204.5000       -999.2500          2.2641         78.6006          0.3814       -999.2500        122.3422
 4205.0000       -999.2500          2.2437         80.2758          0.3645       -999.2500        121.9857
 4205.5000       -999.2500          2.2437         80.5905          0.3782       -999.2500        122.2618
 4206.0000       -999.2500          2.2420         77.8691          0.4028       -999.2500        122.7576
 4206.5000       -999.2500          2.2335         75.6914          0.4099       -999.2500        124.1550
 4207.0000       -999.2500          2.2224         75.6930          0.4013       -999.2500        127.0384
 4207.5000       -999.2500          2.2075         75.5825          0.4005       -999.2500        130.8785
 4208.0000       -999.2500          2.2020         75.6986          0.4007       -999.2500        133.6719
 4208.5000       -999.2500          2.2113         77.2426          0.4073       -999.2500        133.9735
 4209.0000       -999.2500          2.2315         79.6952          0.4204       -999.2500        133.5793
 4209.5000       -999.2500          2.2562         83.1282          0.4260       -999.2500        133.4798
 4210.0000       -999.2500          2.2594         85.0404          0.4293       -999.2500        133.3347
 4210.5000       -999.2500          2.2486         83.6916          0.4342       -999.2500        131.9104
 4211.0000       -999.2500          2.2405         82.5967          0.4279       -999.2500        128.0059
 4211.5000       -999.2500          2.2418         83.3611          0.4164       -999.2500        125.9603
 4212.0000       -999.2500          2.2589         84.2730          0.4145       -999.2500        127.0611
 4212.5000       -999.2500          2.2610         82.7567          0.4049       -999.2500        130.5263
 4213.0000       -999.2500          2.2504         80.2951          0.3999       -999.2500        133.6037
 4213.5000       -999.2500          2.2518         76.7072          0.4078       -999.2500        132.4680
 4214.0000       -999.2500          2.2260         75.5120          0.4167       -999.2500        129.5658
 4214.5000       -999.2500          2.2145         75.8962          0.4220       -999.2500        126.2826
 4215.0000       -999.2500          2.2010         77.4597          0.4342       -999.2500        121.0585
 4215.5000       -999.2500          2.2138         79.5867          0.4434       -999.2500        116.4516
 4216.0000       -999.2500          2.2292         81.9392          0.4458       -999.2500        114.0907
 4216.5000       -999.2500          2.2422         83.2897          0.4096       -999.2500        113.4945
 4217.0000       -999.2500          2.2463         80.4157          0.3751       -999.2500        115.6762
 4217.5000       -999.2500          2.2533         78.7275          0.3493       -999.2500        118.7742
 4218.0000       -999.2500          2.2316         74.5665          0.3380       -999.2500        120.9504
 4218.5000       -999.2500          2.2309         71.9431          0.3323       -999.2500        123.7977
 4219.0000       -999.2500          2.2355         71.1920          0.3388       -999.2500        127.0416
 4219.5000       -999.2500          2.2264         73.0183          0.3508       -999.2500        132.8999
 4220.0000       -999.2500          2.2273         76.1779          0.3670       -999.2500        129.8807
 4220.5000       -999.2500          2.2322         78.4491          0.3896       -999.2500        129.3107
 4221.0000       -999.2500          2.2078         78.9489          0.3972       -999.2500        134.9787
 4221.5000       -999.2500          2.1660         78.9201          0.3819       -999.2500        141.3436
 4222.0000       -999.2500          2.1389         78.9086          0.3839       -999.2500        143.8066
 4222.5000       -999.2500          2.1168         79.4482          0.4024       -999.2500        144.4233
 4223.0000       -999.2500          2.0775         82.2651          0.4194       -999.2500        144.9819
 4223.5000       -999.2500          2.0182         85.0297          0.4318       -999.2500        146.5491
