~VERSION INFORMATION
 VERS.                          2.0   : CWLS LOG ASCII STANDARD - VERSION 2.0
 WRAP.                          NO    : ONE LINE PER DEPTH STEP
#
~Well Information Section
#MNEM     .UNIT     DATA                DESCRIPTION
#-----    -----     --------            --------------
 STRT     .F        100.0000            : START DEPTH
 STOP     .F        7130.0000           : END DEPTH
 STEP     .F        0.0000              : INCREMENT DEPTH
 NULL     .         -999.2500           : NULL VALUE
 COMP     .                              :
 WELL     .         WELL-01             : WELL NAME
 EKB      .F        92.0000             : KELLY BUSHING ELEVATION
 EGL      .F        0.0000              : GROUND LEVEL ELEVATION
 EPD      .F        0.0000              : PERMANENT DATUM ELEVATION
 FLD      .                              :
 LOC      . X = 2002.0000 Y = 2378.0000: WELL LOCATION
 PROV     .                              :
 SRVC     .                              :
 PROV     .                              :
 DATE     .                              :
 API      .                              :
#
~Curve Information Section
#MNEM     .UNIT               Curve #DESCRIPTION
#-----    -----               ----   --------------
 DEPTH    .F                  : 1     Name = Domain Curve - Type = DEPTH
 CHKS     .ms (Two Way time)  : 2     Name = Check Shot_1 - Type = Check Shot
 RHOB     .g/cc               : 3     Name = Density_1 - Type = Density
 GR       .gapi               : 4     Name = Gamma Ray_1 - Type = Gamma Ray
 NPHI     .ft3/ft3            : 5     Name = Neutron Porosity_1 - Type = Neutron Porosity
 PHIT	  .ft3/ft3            : 6     Name = Porosity_total_1 - Type = Porosity
 DT       .us/ft              : 7     Name = P-wave_1 - Type = P-wave
~A (ASCII LOG DATA)
# ...
 5799.0000       -999.2500          2.1005         71.9212          0.3282          0.3426        105.9390
 5799.5000       -999.2500          2.1428         71.7534          0.3198          0.3258        106.3713
 5800.0000       1474.8800          2.1790         72.8345          0.3075          0.3091        108.1707
 5800.5000       -999.2500          2.2011         75.2144          0.3136          0.3057        106.8214
 5801.0000       -999.2500          2.1781         78.7760          0.3221          0.3166        108.8438
 5801.5000       -999.2500          2.1110         81.2418          0.3300          0.3403        111.2597
 5802.0000       -999.2500          2.1288         83.6103          0.3159          0.3281        114.8652
 5802.5000       -999.2500          2.1555         85.9351          0.3087          0.3166        112.8748
 5803.0000       -999.2500          2.1849         82.8476          0.2903          0.2988        115.8536
 5803.5000       -999.2500          2.1627         77.1980          0.2943          0.3074        105.3832
 5804.0000       -999.2500          2.1460         75.7240          0.2855          0.3084        101.0101
 5804.5000       -999.2500          2.1062         76.3617          0.3008          0.3280        104.2438
 5805.0000       -999.2500          2.0404         79.0818          0.3210          0.3580        103.7982
 5805.5000       -999.2500          1.9894         81.1940          0.3414          0.3835         99.6386
 5806.0000       -999.2500          2.0145         83.2641          0.3507          0.3797        102.9326
 5806.5000       -999.2500          2.1133         85.4892          0.3366          0.3428        106.6099
 5807.0000       -999.2500          2.1976         85.2100          0.2949          0.2973        106.3148
 5807.5000       -999.2500          2.1990         81.6074          0.3028          0.3008        112.9383
 5808.0000       -999.2500          2.1726         77.8169          0.3176          0.3159        113.8963
 5808.5000       -999.2500          2.1427         74.3355          0.3337          0.3327        115.9594
 5809.0000       -999.2500          2.1264         73.1801          0.3395          0.3404        116.6951
 5809.5000       -999.2500          2.1204         72.1900          0.3284          0.3367        113.2698
 5810.0000       -999.2500          2.1030         69.8966          0.3142          0.3352        114.7817
 5810.5000       -999.2500          2.0830         67.4499          0.3130          0.3409        115.7572
 5811.0000       -999.2500          2.0502         65.0324          0.3251          0.3568        109.9567
 5811.5000       -999.2500          2.0450         61.3130          0.3278          0.3597        101.4108
 5812.0000       -999.2500          2.0600         58.4163          0.3206          0.3516         92.5870
 5812.5000       -999.2500          2.0817         56.3109          0.2998          0.3353         87.9112
 5813.0000       -999.2500          2.1169         55.5165          0.2703          0.3109         88.6495
 5813.5000       -999.2500          2.2022         54.2176          0.2367          0.2685         93.8880
 5814.0000       -999.2500          2.3389         52.7203          0.2019          0.2096         96.2161
 5814.5000       -999.2500          2.4155         51.1228          0.1691          0.1707         93.2752
 5815.0000       -999.2500          2.4530         50.2710          0.1526          0.1515         83.6057
 5815.5000       -999.2500          2.4966         50.2591          0.1324          0.1286         73.2754
 5816.0000       -999.2500          2.5403         50.8196          0.1260          0.1134         65.9477
 5816.5000       -999.2500          2.5816         51.5089          0.1237          0.1023         60.6917
 5817.0000       -999.2500          2.6073         51.3414          0.1218          0.0960         57.8652
 5817.5000       -999.2500          2.5994         50.9126          0.1224          0.0979         56.9135
 5818.0000       -999.2500          2.5703         50.1093          0.1267          0.1066         57.3963
 5818.5000       -999.2500          2.5455         50.2034          0.1362          0.1179         59.4512
 5819.0000       -999.2500          2.5157         50.1896          0.1556          0.1362         64.1412
 5819.5000       -999.2500          2.4509         49.7432          0.1783          0.1655         72.7390
 5820.0000       -999.2500          2.3744         47.6698          0.2011          0.1987         81.6674
 5820.5000       -999.2500          2.3230         44.3849          0.2208          0.2236         88.4173
 5821.0000       -999.2500          2.2789         42.4629          0.2368          0.2446         91.9434
 5821.5000       -999.2500          2.2436         42.0631          0.2435          0.2586         91.3753
 5822.0000       -999.2500          2.2380         42.3560          0.2443          0.2606         86.9557
 5822.5000       -999.2500          2.2627         43.3517          0.2409          0.2514         81.6901
 5823.0000       -999.2500          2.3012         44.5758          0.2390          0.2390         75.3781
 5823.5000       -999.2500          2.3599         45.5075          0.2396          0.2228         68.8064
 5824.0000       -999.2500          2.4282         46.7606          0.2288          0.1994         64.0074
 5824.5000       -999.2500          2.4795         48.6789          0.2033          0.1725         59.5180
 5825.0000       -999.2500          2.5318         50.8298          0.1754          0.1443         56.7131
 5825.5000       -999.2500          2.5614         52.9790          0.1513          0.1234         56.1827
 5826.0000       -999.2500          2.5712         53.9742          0.1411          0.1151         56.8060
 5826.5000       -999.2500          2.5712         54.0078          0.1427          0.1161         57.4098
 5827.0000       -999.2500          2.5564         53.5274          0.1529          0.1254         58.2968
 5827.5000       -999.2500          2.5231         52.0094          0.1680          0.1417         60.5654
 5828.0000       -999.2500          2.4764         50.0842          0.1835          0.1618         64.3419
 5828.5000       -999.2500          2.4191         48.0333          0.1948          0.1829         68.4514
 5829.0000       -999.2500          2.3602         46.8367          0.2100          0.2073         73.7546
 5829.5000       -999.2500          2.3117         46.7193          0.2344          0.2337         80.0195
 5830.0000       -999.2500          2.2738         46.2070          0.2460          0.2506         85.3005
 5830.5000       -999.2500          2.2432         45.2407          0.2423          0.2581         88.6562
 5831.0000       -999.2500          2.2223         44.9911          0.2404          0.2638         90.2695
 5831.5000       -999.2500          2.2042         45.5695          0.2462          0.2721         91.5811
 5832.0000       -999.2500          2.1796         46.2130          0.2578          0.2852         92.5841
 5832.5000       -999.2500          2.1599         46.0181          0.2743          0.2989         93.7266
 5833.0000       -999.2500          2.1527         45.9362          0.2892          0.3081         95.5644
 5833.5000       -999.2500          2.1386         46.7419          0.3004          0.3177         97.8182
 5834.0000       -999.2500          2.1249         47.1369          0.3111          0.3270        100.4280
 5834.5000       -999.2500          2.1249         46.6140          0.3203          0.3314        102.3453
 5835.0000       -999.2500          2.1258         45.5200          0.3211          0.3315        101.2181
 5835.5000       -999.2500          2.1337         45.2000          0.3152          0.3263        100.7690
 5836.0000       -999.2500          2.1550         44.9208          0.3093          0.3170        101.9463
